{"index": {"_index": "geonames_v2", "_id": "5881791"}}
{"name": "Abbotsford", "asciiname": "Abbotsford", "alternatenames": ["Abbotsford", "YXX", "\u0410\u0431\u0431\u043e\u0442\u0441\u0444\u043e\u0440\u0434"], "latitude": 49.05798, "longitude": -122.25257, "location": {"lat": 49.05798, "lon": -122.25257}, "country_code": "CA", "admin1_code": "02", "admin2_code": "5957659", "population": 151683, "timezone": "America/Vancouver"}
{"index": {"_index": "geonames_v2", "_id": "5882142"}}
{"name": "Acton Vale", "asciiname": "Acton Vale", "alternatenames": [], "latitude": 45.65007, "longitude": -72.56582, "location": {"lat": 45.65007, "lon": -72.56582}, "country_code": "CA", "admin1_code": "10", "admin2_code": "16", "population": 5135, "timezone": "America/Montreal"}
{"index": {"_index": "geonames_v2", "_id": "5882799"}}
{"name": "Airdrie", "asciiname": "Airdrie", "alternatenames": ["Erdri", "ai er de li", "ayrdray", "ayrdry", "eeodeuli", "\u0415\u0440\u0434\u0440\u0438", "\u0625\u064a\u0631\u062f\u0631\u0627\u064a", "\u0627\u0626\u0631\u0688\u0631\u0627\u0626", "\u0627\u06cc\u0631\u062f\u0631\u06cc", "\u827e\u5c14\u5fb7\u91cc", "\uc5d0\uc5b4\ub4dc\ub9ac"], "latitude": 51.30011, "longitude": -114.03528, "location": {"lat": 51.30011, "lon": -114.03528}, "country_code": "CA", "admin1_code": "01", "admin2_code": "", "population": 24673, "timezone": "America/Edmonton"}
{"index": {"_index": "geonames_v2", "_id": "5882873"}}
{"name": "Ajax", "asciiname": "Ajax", "alternatenames": ["Adzhaks", "Ehjdzhaks", "Ejdzaks", "ajaks", " awntaryw", "eijegseu", "\u0410\u0434\u0436\u0430\u043a\u0441", "\u0415\u0458\u045f\u0430\u043a\u0441", "\u042d\u0439\u0434\u0436\u0430\u043a\u0441", "\u0623\u062c\u0627\u0643\u0633\u060c \u0623\u0648\u0646\u062a\u0627\u0631\u064a\u0648", "\uc5d0\uc774\uc81d\uc2a4"], "latitude": 43.85012, "longitude": -79.03288, "location": {"lat": 43.85012, "lon": -79.03288}, "country_code": "CA", "admin1_code": "08", "admin2_code": "", "population": 90167, "timezone": "America/Toronto"}
{"index": {"_index": "geonames_v2", "_id": "5884083"}}
{"name": "Alma", "asciiname": "Alma", "alternatenames": ["Al'ma", "Alma", "YTF", "alma", "alma", " kbk", "alma", " kybk", "\u0410\u043b\u043c\u0430", "\u0410\u043b\u044c\u043c\u0430", "\u0622\u0644\u0645\u0627", "\u0622\u0644\u0645\u0627\u060c \u06a9\u0628\u06a9", "\u0623\u0644\u0645\u0627\u060c \u0643\u064a\u0628\u0643"], "latitude": 48.55009, "longitude": -71.6491, "location": {"lat": 48.55009, "lon": -71.6491}, "country_code": "CA", "admin1_code": "10", "admin2_code": "02", "population": 29526, "timezone": "America/Montreal"}
{"index": {"_index": "geonames_v2", "_id": "5884467"}}
{"name": "Amherst", "asciiname": "Amherst", "alternatenames": [], "latitude": 45.83345, "longitude": -64.19874, "location": {"lat": 45.83345, "lon": -64.19874}, "country_code": "CA", "admin1_code": "07", "admin2_code": "", "population": 9336, "timezone": "America/Halifax"}
{"index": {"_index": "geonames_v2", "_id": "5884473"}}
{"name": "Amherstburg", "asciiname": "Amherstburg", "alternatenames": [], "latitude": 42.11679, "longitude": -83.04985, "location": {"lat": 42.11679, "lon": -83.04985}, "country_code": "CA", "admin1_code": "08", "admin2_code": "", "population": 11459, "timezone": "America/Toronto"}
{"index": {"_index": "geonames_v2", "_id": "5884588"}}
{"name": "Amos", "asciiname": "Amos", "alternatenames": ["Amos", "YEY", "amws", "amws", " kbk", "amws", " kybk", "\u0410\u043c\u043e\u0441", "\u0622\u0645\u0648\u0633\u060c \u06a9\u0628\u06a9", "\u0623\u0645\u0648\u0633\u060c \u0643\u064a\u0628\u0643", "\u0627\u0645\u0648\u0633"], "latitude": 48.56688, "longitude": -78.11624, "location": {"lat": 48.56688, "lon": -78.11624}, "country_code": "CA", "admin1_code": "10", "admin2_code": "08", "population": 17918, "timezone": "America/Montreal"}
{"index": {"_index": "geonames_v2", "_id": "5885280"}}
{"name": "Angus", "asciiname": "Angus", "alternatenames": [], "latitude": 44.31681, "longitude": -79.88295, "location": {"lat": 44.31681, "lon": -79.88295}, "country_code": "CA", "admin1_code": "08", "admin2_code": "", "population": 10269, "timezone": "America/Toronto"}
{"index": {"_index": "geonames_v2", "_id": "5885383"}}
{"name": "Anmore", "asciiname": "Anmore", "alternatenames": [], "latitude": 49.31637, "longitude": -122.85263, "location": {"lat": 49.31637, "lon": -122.85263}, "country_code": "CA", "admin1_code": "02", "admin2_code": "5915", "population": 126456, "timezone": "America/Vancouver"}
{"index": {"_index": "geonames_v2", "_id": "5886182"}}
{"name": "Antigonish", "asciiname": "Antigonish", "alternatenames": [], "latitude": 45.61685, "longitude": -61.99858, "location": {"lat": 45.61685, "lon": -61.99858}, "country_code": "CA", "admin1_code": "07", "admin2_code": "", "population": 5003, "timezone": "America/Halifax"}
{"index": {"_index": "geonames_v2", "_id": "5887214"}}
{"name": "Arnprior", "asciiname": "Arnprior", "alternatenames": [], "latitude": 45.43341, "longitude": -76.34939, "location": {"lat": 45.43341, "lon": -76.34939}, "country_code": "CA", "admin1_code": "08", "admin2_code": "", "population": 9607, "timezone": "America/Toronto"}
{"index": {"_index": "geonames_v2", "_id": "5887470"}}
{"name": "Asbestos", "asciiname": "Asbestos", "alternatenames": [], "latitude": 45.76678, "longitude": -71.9324, "location": {"lat": 45.76678, "lon": -71.9324}, "country_code": "CA", "admin1_code": "10", "admin2_code": "05", "population": 7190, "timezone": "America/Montreal"}
{"index": {"_index": "geonames_v2", "_id": "5888716"}}
{"name": "Aylmer", "asciiname": "Aylmer", "alternatenames": [], "latitude": 42.76679, "longitude": -80.98302, "location": {"lat": 42.76679, "lon": -80.98302}, "country_code": "CA", "admin1_code": "08", "admin2_code": "", "population": 7527, "timezone": "America/Toronto"}
{"index": {"_index": "geonames_v2", "_id": "5889745"}}
{"name": "Baie-Comeau", "asciiname": "Baie-Comeau", "alternatenames": ["Baie-Comeau", "Be Komo", "Be-Komo", "YBC", "bay kamyw", "bh-kwmw", "byh kwmw", " kybk", "\u0411\u0435 \u041a\u043e\u043c\u043e", "\u0411\u0435-\u041a\u043e\u043c\u043e", "\u0628\u0627\u0626 \u06a9\u0627\u0645\u06cc\u0648", "\u0628\u0647-\u06a9\u0648\u0645\u0648", "\u0628\u064a\u0647 \u0643\u0648\u0645\u0648\u060c \u0643\u064a\u0628\u0643"], "latitude": 49.21679, "longitude": -68.14894, "location": {"lat": 49.21679, "lon": -68.14894}, "country_code": "CA", "admin1_code": "10", "admin2_code": "09", "population": 29808, "timezone": "America/Montreal"}
{"index": {"_index": "geonames_v2", "_id": "5892532"}}
{"name": "Banff", "asciiname": "Banff", "alternatenames": ["Banf", "Banfas", "Banff", "YBA", "baenpeu", "ban fu", "banfu", "banpi", "bnf", "\u0411\u0430\u043d\u0444", "\u0411\u0430\u043d\u0444\u0444", "\u0628\u0646\u0641", "\u10d1\u10d0\u10dc\u10e4\u10d8", "\u30d0\u30f3\u30d5", "\u73ed\u592b", "\ubc34\ud504"], "latitude": 51.17622, "longitude": -115.56982, "location": {"lat": 51.17622, "lon": -115.56982}, "country_code": "CA", "admin1_code": "01", "admin2_code": "", "population": 7502, "timezone": "America/Edmonton"}
{"index": {"_index": "geonames_v2", "_id": "5894171"}}
{"name": "Barrie", "asciiname": "Barrie", "alternatenames": ["Bari", "Baris", "Barri", "Barrie", "Berri", "YLK", "ba li", "baeli", "bari", "bary", "bry", "\u0411\u0430\u0440\u0438", "\u0411\u0430\u0440\u0440\u0438", "\u0411\u0435\u0440\u0440\u0456", "\u0628\u0627\u0631\u064a", "\u0628\u0627\u0631\u06cc", "\u0628\u0627\u0631\u06cc\u060c \u0627\u0648\u0646\u0679\u0627\u0631\u06cc\u0648", "\u0628\u0631\u06cc", "\u30d0\u30ea\u30fc", "\u5df4\u91cc", "\ubc30\ub9ac"], "latitude": 44.40011, "longitude": -79.66634, "location": {"lat": 44.40011, "lon": -79.66634}, "country_code": "CA", "admin1_code": "08", "admin2_code": "", "population": 182041, "timezone": "America/Toronto"}
{"index": {"_index": "geonames_v2", "_id": "5895424"}}
{"name": "Bay Roberts", "asciiname": "Bay Roberts", "alternatenames": [], "latitude": 47.59989, "longitude": -53.26478, "location": {"lat": 47.59989, "lon": -53.26478}, "country_code": "CA", "admin1_code": "05", "admin2_code": "", "population": 13737, "timezone": "America/St_Johns"}
{"index": {"_index": "geonames_v2", "_id": "5895650"}}
{"name": "Beaconsfield", "asciiname": "Beaconsfield", "alternatenames": [], "latitude": 45.43341, "longitude": -73.86586, "location": {"lat": 45.43341, "lon": -73.86586}, "country_code": "CA", "admin1_code": "10", "admin2_code": "", "population": 19194, "timezone": "America/Montreal"}
{"index": {"_index": "geonames_v2", "_id": "5896495"}}
{"name": "Beauharnois", "asciiname": "Beauharnois", "alternatenames": [], "latitude": 45.31341, "longitude": -73.8725, "location": {"lat": 45.31341, "lon": -73.8725}, "country_code": "CA", "admin1_code": "10", "admin2_code": "16", "population": 11918, "timezone": "America/Montreal"}
{"index": {"_index": "geonames_v2", "_id": "5896522"}}
{"name": "Beaumont", "asciiname": "Beaumont", "alternatenames": [], "latitude": 53.35013, "longitude": -113.41871, "location": {"lat": 53.35013, "lon": -113.41871}, "country_code": "CA", "admin1_code": "01", "admin2_code": "", "population": 7366, "timezone": "America/Edmonton"}
{"index": {"_index": "geonames_v2", "_id": "5897209"}}
{"name": "B\u00e9cancour", "asciiname": "Becancour", "alternatenames": ["Bekankur", "bkankwr", " kbk", "bykankwr", " kybk", "byknkwr", "\u0411\u0435\u043a\u0430\u043d\u043a\u0443\u0440", "\u0628\u064a\u0643\u0627\u0646\u0643\u0648\u0631\u060c \u0643\u064a\u0628\u0643", "\u0628\u06a9\u0627\u0646\u06a9\u0648\u0631\u060c \u06a9\u0628\u06a9", "\u0628\u06cc\u06a9\u0646\u06a9\u0648\u0631"], "latitude": 46.33336, "longitude": -72.43241, "location": {"lat": 46.33336, "lon": -72.43241}, "country_code": "CA", "admin1_code": "10", "admin2_code": "04", "population": 11134, "timezone": "America/Montreal"}
{"index": {"_index": "geonames_v2", "_id": "5897884"}}
{"name": "Belleville", "asciiname": "Belleville", "alternatenames": ["Bel'vil'", "Belvil", "Bilivailas", "belbil", "berubiru", "bylfy", " awntaryw", "\u0411\u0435\u043b\u0432\u0438\u043b", "\u0411\u0435\u043b\u044c\u0432\u0438\u043b\u044c", "\u0628\u064a\u0644\u0641\u064a\u060c \u0623\u0648\u0646\u062a\u0627\u0631\u064a\u0648", "\u0628\u06cc\u0644\u0648\u0644\u060c \u0627\u0648\u0646\u0679\u0627\u0631\u06cc\u0648", "\u0628\u06cc\u0644\u06cc \u0648\u0644\u06d2", "\u30d9\u30eb\u30d3\u30eb", "\ubca8\ube4c"], "latitude": 44.16682, "longitude": -77.38277, "location": {"lat": 44.16682, "lon": -77.38277}, "country_code": "CA", "admin1_code": "08", "admin2_code": "", "population": 49454, "timezone": "America/Toronto"}
{"index": {"_index": "geonames_v2", "_id": "5898070"}}
{"name": "Bells Corners", "asciiname": "Bells Corners", "alternatenames": ["Bells Corners", "Ottawa Bells Corners"], "latitude": 45.31588, "longitude": -75.83012, "location": {"lat": 45.31588, "lon": -75.83012}, "country_code": "CA", "admin1_code": "08", "admin2_code": "", "population": 9977, "timezone": "America/Toronto"}
{"index": {"_index": "geonames_v2", "_id": "5898138"}}
{"name": "Beloeil", "asciiname": "Beloeil", "alternatenames": [], "latitude": 45.56678, "longitude": -73.19915, "location": {"lat": 45.56678, "lon": -73.19915}, "country_code": "CA", "admin1_code": "10", "admin2_code": "16", "population": 18927, "timezone": "America/Montreal"}
{"index": {"_index": "geonames_v2", "_id": "5903510"}}
{"name": "Blainville", "asciiname": "Blainville", "alternatenames": [], "latitude": 45.66678, "longitude": -73.88249, "location": {"lat": 45.66678, "lon": -73.88249}, "country_code": "CA", "admin1_code": "10", "admin2_code": "15", "population": 46493, "timezone": "America/Montreal"}
{"index": {"_index": "geonames_v2", "_id": "5904501"}}
{"name": "Bluewater", "asciiname": "Bluewater", "alternatenames": [], "latitude": 43.46679, "longitude": -81.59977, "location": {"lat": 43.46679, "lon": -81.59977}, "country_code": "CA", "admin1_code": "08", "admin2_code": "", "population": 7044, "timezone": "America/Toronto"}
{"index": {"_index": "geonames_v2", "_id": "5905132"}}
{"name": "Boisbriand", "asciiname": "Boisbriand", "alternatenames": [], "latitude": 45.61678, "longitude": -73.83249, "location": {"lat": 45.61678, "lon": -73.83249}, "country_code": "CA", "admin1_code": "10", "admin2_code": "15", "population": 26483, "timezone": "America/Montreal"}
{"index": {"_index": "geonames_v2", "_id": "5905152"}}
{"name": "Bois-des-Filion", "asciiname": "Bois-des-Filion", "alternatenames": [], "latitude": 45.66678, "longitude": -73.74918, "location": {"lat": 45.66678, "lon": -73.74918}, "country_code": "CA", "admin1_code": "10", "admin2_code": "", "population": 8383, "timezone": "America/Montreal"}
{"index": {"_index": "geonames_v2", "_id": "5905616"}}
{"name": "Bonnyville", "asciiname": "Bonnyville", "alternatenames": ["Bonivil", "YBY", "\u0411\u043e\u043d\u0438\u0432\u0438\u043b"], "latitude": 54.26684, "longitude": -110.73505, "location": {"lat": 54.26684, "lon": -110.73505}, "country_code": "CA", "admin1_code": "01", "admin2_code": "", "population": 6003, "timezone": "America/Edmonton"}
{"index": {"_index": "geonames_v2", "_id": "5906267"}}
{"name": "Boucherville", "asciiname": "Boucherville", "alternatenames": ["Bushervil", "Bushervil'", "bushavu~iru", "bwshyfyl", " kybk", "\u0411\u0443\u0448\u0435\u0440\u0432\u0438\u043b", "\u0411\u0443\u0448\u0435\u0440\u0432\u0438\u043b\u044c", "\u0628\u0627\u0624\u0686\u0631\u0648\u0644\u06d2", "\u0628\u0648\u0634\u064a\u0641\u064a\u0644\u060c \u0643\u064a\u0628\u0643", "\u30d6\u30fc\u30b7\u30e3\u30fc\u30f4\u30a3\u30eb"], "latitude": 45.59104, "longitude": -73.43605, "location": {"lat": 45.59104, "lon": -73.43605}, "country_code": "CA", "admin1_code": "10", "admin2_code": "16", "population": 39062, "timezone": "America/Montreal"}
{"index": {"_index": "geonames_v2", "_id": "5907092"}}
{"name": "Bracebridge", "asciiname": "Bracebridge", "alternatenames": [], "latitude": 45.03341, "longitude": -79.31633, "location": {"lat": 45.03341, "lon": -79.31633}, "country_code": "CA", "admin1_code": "08", "admin2_code": "", "population": 8238, "timezone": "America/Toronto"}
{"index": {"_index": "geonames_v2", "_id": "5907180"}}
{"name": "Bradford West Gwillimbury", "asciiname": "Bradford West Gwillimbury", "alternatenames": [], "latitude": 44.11681, "longitude": -79.61633, "location": {"lat": 44.11681, "lon": -79.61633}, "country_code": "CA", "admin1_code": "08", "admin2_code": "", "population": 18811, "timezone": "America/Toronto"}
{"index": {"_index": "geonames_v2", "_id": "5907364"}}
{"name": "Brampton", "asciiname": "Brampton", "alternatenames": ["Brampton", "Bramptonas", "Bramptono", "Bramptun", "XPN", "barampatana", "beulaemteon", "braimpatana", "brambtwn", "bramptan", "bramtana", "bu lan pu dun", "buranputon", "piramptan", "\u0411\u0440\u0430\u043c\u043f\u0442\u043e\u043d", "\u0411\u0440\u0430\u043c\u043f\u0442\u044a\u043d", "\u0628\u0631\u0627\u0645\u0628\u062a\u0648\u0646", "\u0628\u0631\u0627\u0645\u067e\u0679\u0646\u060c \u0627\u0646\u0679\u0627\u0631\u06cc\u0648", "\u0628\u0631\u06cc\u0645\u067e\u0679\u0646", "\u092c\u094d\u0930\u093e\u092e\u094d\u091f\u0928", "\u092c\u094d\u0930\u0948\u0902\u092a\u091f\u0928", "\u0a2c\u0a30\u0a3e\u0a02\u0a2a\u0a1f\u0a28", "\u0baa\u0bbf\u0bb0\u0bbe\u0bae\u0bcd\u0baa\u0bcd\u0b9f\u0ba9\u0bcd", "\u0c2c\u0c4d\u0c30\u0c3e\u0c02\u0c2a\u0c4d\u0c1f\u0c28\u0c4d", "\u0d2c\u0d4d\u0d30\u0d02\u0d2a\u0d4d\u0d1f\u0d7a", "\u0db6\u0dca\u200d\u0dbb\u0dd0\u0db8\u0dca\u0da7\u0db1\u0dca", "\u30d6\u30e9\u30f3\u30d7\u30c8\u30f3", "\u5e03\u5170\u666e\u987f", "\ube0c\ub7a8\ud134"], "latitude": 43.68341, "longitude": -79.76633, "location": {"lat": 43.68341, "lon": -79.76633}, "country_code": "CA", "admin1_code": "08", "admin2_code": "", "population": 433806, "timezone": "America/Toronto"}
{"index": {"_index": "geonames_v2", "_id": "5907896"}}
{"name": "Brandon", "asciiname": "Brandon", "alternatenames": ["Brandon", "Branton", "Brehndon", "Brendon", "YBR", "bu lan deng", "burandon", "\u039c\u03c0\u03c1\u03ac\u03bd\u03c4\u03bf\u03bd", "\u0411\u0440\u0430\u043d\u0434\u043e\u043d", "\u0411\u0440\u0435\u043d\u0434\u043e\u043d", "\u0411\u0440\u044d\u043d\u0434\u043e\u043d", "\u0628\u0631\u06cc\u0646\u0688\u0646", "\u30d6\u30e9\u30f3\u30c9\u30f3", "\u5e03\u5170\u767b"], "latitude": 49.84692, "longitude": -99.95306, "location": {"lat": 49.84692, "lon": -99.95306}, "country_code": "CA", "admin1_code": "03", "admin2_code": "", "population": 26234, "timezone": "America/Winnipeg"}
{"index": {"_index": "geonames_v2", "_id": "5907983"}}
{"name": "Brant", "asciiname": "Brant", "alternatenames": [], "latitude": 43.1334, "longitude": -80.34967, "location": {"lat": 43.1334, "lon": -80.34967}, "country_code": "CA", "admin1_code": "08", "admin2_code": "", "population": 34415, "timezone": "America/Toronto"}
{"index": {"_index": "geonames_v2", "_id": "5907990"}}
{"name": "Brantford", "asciiname": "Brantford", "alternatenames": ["Brantford", "Brantfordas", "XFV", "beulaenteupeodeu", "brantfwrd", " awntaryw", "burantofodo", "\u0411\u0440\u0430\u043d\u0442\u0444\u043e\u0440\u0434", "\u0628\u0631\u0627\u0646\u062a\u0641\u0648\u0631\u062f\u060c \u0623\u0648\u0646\u062a\u0627\u0631\u064a\u0648", "\u0628\u0631\u0627\u0646\u0679\u0641\u0648\u0631\u0688", "\u0628\u0631\u06cc\u0646\u0679\u0641\u0648\u0631\u0688", "\u30d6\u30e9\u30f3\u30c8\u30d5\u30a9\u30fc\u30c9", "\ube0c\ub79c\ud2b8\ud37c\ub4dc"], "latitude": 43.1334, "longitude": -80.26636, "location": {"lat": 43.1334, "lon": -80.26636}, "country_code": "CA", "admin1_code": "08", "admin2_code": "", "population": 87759, "timezone": "America/Toronto"}
{"index": {"_index": "geonames_v2", "_id": "5908723"}}
{"name": "Bridgewater", "asciiname": "Bridgewater", "alternatenames": [], "latitude": 44.38345, "longitude": -64.51546, "location": {"lat": 44.38345, "lon": -64.51546}, "country_code": "CA", "admin1_code": "07", "admin2_code": "", "population": 8070, "timezone": "America/Halifax"}
{"index": {"_index": "geonames_v2", "_id": "5909294"}}
{"name": "Brockville", "asciiname": "Brockville", "alternatenames": ["Brokvil", "Brokvill", "Brukvailas", "Gorad Brokvil", "XBR", "brwk-wl", "brwkfyl", " awntaryw", "burokkubiru", "\u0411\u0440\u043e\u043a\u0432\u0438\u043b", "\u0411\u0440\u043e\u043a\u0432\u0438\u043b\u043b", "\u0413\u043e\u0440\u0430\u0434 \u0411\u0440\u043e\u043a\u0432\u0456\u043b", "\u0628\u0631\u0648\u0643\u0641\u064a\u0644\u060c \u0623\u0648\u0646\u062a\u0627\u0631\u064a\u0648", "\u0628\u0631\u0648\u06a9 \u0648\u0644\u06d2", "\u0628\u0631\u0648\u06a9-\u0648\u0644", "\u30d6\u30ed\u30c3\u30af\u30d3\u30eb"], "latitude": 44.59132, "longitude": -75.68705, "location": {"lat": 44.59132, "lon": -75.68705}, "country_code": "CA", "admin1_code": "08", "admin2_code": "", "population": 23886, "timezone": "America/Toronto"}
{"index": {"_index": "geonames_v2", "_id": "5909403"}}
{"name": "Bromont", "asciiname": "Bromont", "alternatenames": ["ZBM"], "latitude": 45.31678, "longitude": -72.64912, "location": {"lat": 45.31678, "lon": -72.64912}, "country_code": "CA", "admin1_code": "10", "admin2_code": "16", "population": 6049, "timezone": "America/Montreal"}
{"index": {"_index": "geonames_v2", "_id": "5909514"}}
{"name": "Brooks", "asciiname": "Brooks", "alternatenames": ["Broks", "Bruks", "beulugseu", "brwks", "\u0411\u0440\u0443\u043a\u0441", "\u0628\u0631\u0648\u06a9\u0633", "\u10d1\u10e0\u10dd\u10d9\u10e1\u10d8", "\ube0c\ub8e9\uc2a4"], "latitude": 50.58341, "longitude": -111.88509, "location": {"lat": 50.58341, "lon": -111.88509}, "country_code": "CA", "admin1_code": "01", "admin2_code": "", "population": 12744, "timezone": "America/Edmonton"}
{"index": {"_index": "geonames_v2", "_id": "5909629"}}
{"name": "Brossard", "asciiname": "Brossard", "alternatenames": ["Brosar", "brwsar", "burosado", "\u0411\u0440\u043e\u0441\u0430\u0440", "\u0628\u0631\u0648\u0633\u0627\u0631", "\u0628\u0631\u0648\u0633\u0627\u0631\u0688", "\u30d6\u30ed\u30b5\u30fc\u30c9"], "latitude": 45.45008, "longitude": -73.46583, "location": {"lat": 45.45008, "lon": -73.46583}, "country_code": "CA", "admin1_code": "10", "admin2_code": "16", "population": 69575, "timezone": "America/Montreal"}
{"index": {"_index": "geonames_v2", "_id": "5909969"}}
{"name": "Brownsburg-Chatham", "asciiname": "Brownsburg-Chatham", "alternatenames": [], "latitude": 45.68342, "longitude": -74.4159, "location": {"lat": 45.68342, "lon": -74.4159}, "country_code": "CA", "admin1_code": "10", "admin2_code": "15", "population": 6664, "timezone": "America/Montreal"}
{"index": {"_index": "geonames_v2", "_id": "5911592"}}
{"name": "Burlington", "asciiname": "Burlington", "alternatenames": ["Berlington", "barinton", "beollingteon", "byrlynjtwn", " awntaryw", "\u0411\u0435\u0440\u043b\u0438\u043d\u0433\u0442\u043e\u043d", "\u0411\u0435\u0440\u043b\u0456\u043d\u0433\u0442\u043e\u043d", "\u0628\u0631\u0644\u0646\u06af\u0679\u0646", "\u0628\u064a\u0631\u0644\u064a\u0646\u062c\u062a\u0648\u0646\u060c \u0623\u0648\u0646\u062a\u0627\u0631\u064a\u0648", "\u30d0\u30fc\u30ea\u30f3\u30c8\u30f3", "\ubc8c\ub9c1\ud134"], "latitude": 43.38621, "longitude": -79.83713, "location": {"lat": 43.38621, "lon": -79.83713}, "country_code": "CA", "admin1_code": "08", "admin2_code": "", "population": 164415, "timezone": "America/Toronto"}
{"index": {"_index": "geonames_v2", "_id": "5911606"}}
{"name": "Burnaby", "asciiname": "Burnaby", "alternatenames": ["Barnabis", "Bernabi", "Bjornabi", "Burnabi", "Burnaby", "banabi", "banabi shi", "ben na bi", "beonabi", "brnyby", "bwrnby", "\u0411\u0435\u0440\u043d\u0430\u0431\u0438", "\u0411\u0435\u0440\u043d\u0430\u0431\u0456", "\u0411\u044a\u0440\u043d\u0430\u0431\u0438", "\u0411\u0451\u0440\u043d\u0430\u0431\u0438", "\u0411\u04e9\u0440\u043d\u0430\u0431\u0438", "\u0628\u0631\u0646\u0627\u0628\u06d2\u060c \u0628\u0631\u0679\u0634 \u06a9\u0648\u0644\u0645\u0628\u06cc\u0627", "\u0628\u0631\u0646\u06cc\u0628\u06cc", "\u0628\u0648\u0631\u0646\u0628\u064a", "\u30d0\u30fc\u30ca\u30d3\u30fc", "\u30d0\u30fc\u30ca\u30d3\u30fc\u5e02", "\u672c\u90a3\u6bd4", "\ubc84\ub098\ube44"], "latitude": 49.26636, "longitude": -122.95263, "location": {"lat": 49.26636, "lon": -122.95263}, "country_code": "CA", "admin1_code": "02", "admin2_code": "", "population": 202799, "timezone": "America/Vancouver"}
{"index": {"_index": "geonames_v2", "_id": "5913490"}}
{"name": "Calgary", "asciiname": "Calgary", "alternatenames": ["Calgaria", "Calgary", "Gorad Kalgary", "Kalgari", "Kalgario", "Kalgaris", "Kalnkari", "Kalqari", "Kelgery", "YYC", "ka er jia li", "kaelgeoli", "kailagari", "kalgari", "kalghary", "kalgry", "kalkari", "karugari", "kelgari", "kyalgari", "qlgry", "\u039a\u03ac\u03bb\u03b3\u03ba\u03b1\u03c1\u03b9", "\u0413\u043e\u0440\u0430\u0434 \u041a\u0430\u043b\u0433\u0430\u0440\u044b", "\u041a\u0430\u043b\u0433\u0430\u0440\u0438", "\u041a\u0430\u043b\u0433\u0430\u0440\u0456", "\u053f\u0561\u056c\u0563\u0561\u0580\u056b", "\u05e7\u05dc\u05d2\u05e8\u05d9", "\u0643\u0627\u0644\u063a\u0627\u0631\u064a", "\u06a9\u0627\u0644\u06af\u0631\u06cc", "\u0915\u0945\u0932\u094d\u0917\u093e\u0930\u0940", "\u0915\u0948\u0932\u0917\u0930\u0940", "\u0b95\u0bbe\u0bb2\u0bcd\u0b95\u0bb0\u0bbf", "\u0c15\u0c3e\u0c32\u0c4d\u0c17\u0c30\u0c40", "\u0c95\u0ccd\u0caf\u0cbe\u0cb2\u0ccd\u0c97\u0cb0\u0cbf", "\u0e41\u0e04\u0e25\u0e01\u0e30\u0e23\u0e35", "\u1000\u101a\u103a\u101c\u103a\u1002\u101b\u102e\u1019\u103c\u102d\u102f\u1037", "\u10d9\u10d0\u10da\u10d2\u10d0\u10e0\u10d8", "\u30ab\u30eb\u30ac\u30ea\u30fc", "\u5361\u5c14\u52a0\u91cc", "\uce98\uac70\ub9ac"], "latitude": 51.05011, "longitude": -114.08529, "location": {"lat": 51.05011, "lon": -114.08529}, "country_code": "CA", "admin1_code": "01", "admin2_code": "", "population": 1019942, "timezone": "America/Edmonton"}
{"index": {"_index": "geonames_v2", "_id": "5913695"}}
{"name": "Cambridge", "asciiname": "Cambridge", "alternatenames": ["Kembridz", "Kembridzh", "jian qiao", "kambrydj", " awntaryw", "kenburijji", "kymbrj", "\u041a\u0435\u043c\u0431\u0440\u0438\u0434\u0436", "\u041a\u0435\u043c\u0431\u0440\u0438\u045f", "\u0643\u0627\u0645\u0628\u0631\u064a\u062f\u062c\u060c \u0623\u0648\u0646\u062a\u0627\u0631\u064a\u0648", "\u06a9\u06cc\u0645\u0628\u0631\u062c", "\u30b1\u30f3\u30d6\u30ea\u30c3\u30b8", "\u5251\u6865"], "latitude": 43.3601, "longitude": -80.31269, "location": {"lat": 43.3601, "lon": -80.31269}, "country_code": "CA", "admin1_code": "08", "admin2_code": "", "population": 120372, "timezone": "America/Toronto"}
{"index": {"_index": "geonames_v2", "_id": "5913934"}}
{"name": "Camlachie", "asciiname": "Camlachie", "alternatenames": [], "latitude": 43.03596, "longitude": -82.1616, "location": {"lat": 43.03596, "lon": -82.1616}, "country_code": "CA", "admin1_code": "08", "admin2_code": "", "population": 7506, "timezone": "America/Toronto"}
{"index": {"_index": "geonames_v2", "_id": "5914132"}}
{"name": "Campbell River", "asciiname": "Campbell River", "alternatenames": ["Kehmpbell-River", "Kembel River", "Kembell-River", "YBL", "kaembellibeo", "kambl ryfr", " kwlwmbya albrytanyt", "kan bei er he", "kyanberuriba", "\u041a\u0435\u043c\u0431\u0435\u043b \u0420\u0438\u0432\u0435\u0440", "\u041a\u0435\u043c\u0431\u0435\u043b\u043b-\u0420\u0438\u0432\u0435\u0440", "\u041a\u044d\u043c\u043f\u0431\u0435\u043b\u043b-\u0420\u0438\u0432\u0435\u0440", "\u0643\u0627\u0645\u0628\u0644 \u0631\u064a\u0641\u0631\u060c \u0643\u0648\u0644\u0648\u0645\u0628\u064a\u0627 \u0627\u0644\u0628\u0631\u064a\u0637\u0627\u0646\u064a\u0629", "\u30ad\u30e3\u30f3\u30d9\u30eb\u30ea\u30d0\u30fc", "\u574e\u8d1d\u5c14\u6cb3", "\ucea0\ubca8\ub9ac\ubc84"], "latitude": 50.01634, "longitude": -125.24459, "location": {"lat": 50.01634, "lon": -125.24459}, "country_code": "CA", "admin1_code": "02", "admin2_code": "", "population": 33430, "timezone": "America/Vancouver"}
{"index": {"_index": "geonames_v2", "_id": "5914653"}}
{"name": "Camrose", "asciiname": "Camrose", "alternatenames": ["Kamrouz", "Keimrozas", "kmrwz", "kym rwz", "\u041a\u0430\u043c\u0440\u043e\u0443\u0437", "\u06a9\u0645\u0631\u0648\u0632", "\u06a9\u06cc\u0645 \u0631\u0648\u0632"], "latitude": 53.01684, "longitude": -112.83525, "location": {"lat": 53.01684, "lon": -112.83525}, "country_code": "CA", "admin1_code": "01", "admin2_code": "", "population": 15686, "timezone": "America/Edmonton"}
{"index": {"_index": "geonames_v2", "_id": "5914826"}}
{"name": "Candiac", "asciiname": "Candiac", "alternatenames": [], "latitude": 45.38338, "longitude": -73.51587, "location": {"lat": 45.38338, "lon": -73.51587}, "country_code": "CA", "admin1_code": "10", "admin2_code": "16", "population": 15947, "timezone": "America/Montreal"}
{"index": {"_index": "geonames_v2", "_id": "5914894"}}
{"name": "Canmore", "asciiname": "Canmore", "alternatenames": ["Kanmor", "kan mo er", "\u041a\u0430\u043d\u043c\u043e\u0440", "\u574e\u83ab\u5c14"], "latitude": 51.08335, "longitude": -115.35206, "location": {"lat": 51.08335, "lon": -115.35206}, "country_code": "CA", "admin1_code": "01", "admin2_code": "", "population": 12288, "timezone": "America/Edmonton"}
{"index": {"_index": "geonames_v2", "_id": "5916722"}}
{"name": "Carbonear", "asciiname": "Carbonear", "alternatenames": [], "latitude": 47.73319, "longitude": -53.21478, "location": {"lat": 47.73319, "lon": -53.21478}, "country_code": "CA", "admin1_code": "05", "admin2_code": "", "population": 6814, "timezone": "America/St_Johns"}
{"index": {"_index": "geonames_v2", "_id": "5917117"}}
{"name": "Carignan", "asciiname": "Carignan", "alternatenames": [], "latitude": 45.45008, "longitude": -73.29916, "location": {"lat": 45.45008, "lon": -73.29916}, "country_code": "CA", "admin1_code": "10", "admin2_code": "16", "population": 7426, "timezone": "America/Montreal"}
{"index": {"_index": "geonames_v2", "_id": "5917158"}}
{"name": "Carleton Place", "asciiname": "Carleton Place", "alternatenames": [], "latitude": 45.13341, "longitude": -76.14938, "location": {"lat": 45.13341, "lon": -76.14938}, "country_code": "CA", "admin1_code": "08", "admin2_code": "", "population": 9743, "timezone": "America/Toronto"}
{"index": {"_index": "geonames_v2", "_id": "5918118"}}
{"name": "Castlegar", "asciiname": "Castlegar", "alternatenames": ["Kaslgar", "YCG", "ka si er jia", "kaslghar", " kwlwmbya albrytanyt", "\u041a\u0430\u0441\u043b\u0433\u0430\u0440", "\u0643\u0627\u0633\u0644\u063a\u0627\u0631\u060c \u0643\u0648\u0644\u0648\u0645\u0628\u064a\u0627 \u0627\u0644\u0628\u0631\u064a\u0637\u0627\u0646\u064a\u0629", "\u5361\u65af\u5c14\u52a0"], "latitude": 49.29984, "longitude": -117.66894, "location": {"lat": 49.29984, "lon": -117.66894}, "country_code": "CA", "admin1_code": "02", "admin2_code": "", "population": 8715, "timezone": "America/Vancouver"}
{"index": {"_index": "geonames_v2", "_id": "5919566"}}
{"name": "Chambly", "asciiname": "Chambly", "alternatenames": ["Shambli", "chymbly", "shambly", " kbk", "shwmbly", " kybk", "\u0428\u0430\u043c\u0431\u043b\u0438", "\u0428\u0430\u043c\u0431\u043b\u0456", "\u0634\u0627\u0645\u0628\u0644\u06cc\u060c \u06a9\u0628\u06a9", "\u0634\u0648\u0645\u0628\u0644\u064a\u060c \u0643\u064a\u0628\u0643", "\u0686\u06cc\u0645\u0628\u0644\u06cc"], "latitude": 45.45008, "longitude": -73.28246, "location": {"lat": 45.45008, "lon": -73.28246}, "country_code": "CA", "admin1_code": "10", "admin2_code": "16", "population": 22608, "timezone": "America/Montreal"}
{"index": {"_index": "geonames_v2", "_id": "5920089"}}
{"name": "Charlemagne", "asciiname": "Charlemagne", "alternatenames": [], "latitude": 45.71678, "longitude": -73.48247, "location": {"lat": 45.71678, "lon": -73.48247}, "country_code": "CA", "admin1_code": "10", "admin2_code": "14", "population": 5594, "timezone": "America/Montreal"}
{"index": {"_index": "geonames_v2", "_id": "5920288"}}
{"name": "Charlottetown", "asciiname": "Charlottetown", "alternatenames": ["Baile Shearlot", "Baile She\u00e0rlot", "Carlotauno", "Carolinapolis", "Charlottetown", "Sarlotetaunas", "Sarlottaoun", "Sarlottaun", "Sharlottaun", "Sharluttaun", "YYG", "carlattavun", "sharottotaun", "syalleostaun", "xia luo te dun", "\u0108arlota\u016dno", "\u015earlottaun", "\u0160arlotetaunas", "\u03a3\u03b1\u03c1\u03bb\u03bf\u03c4\u03c4\u03ac\u03bf\u03c5\u03bd", "\u0428\u0430\u0440\u043b\u043e\u0442\u0442\u0430\u0443\u043d", "\u0428\u0430\u0440\u043b\u044a\u0442\u0442\u0430\u0443\u043d", "\u05e9\u05e8\u05dc\u05d5\u05d8\u05d8\u05d0\u05d5\u05df", "\u0634\u0627\u0631\u0644\u0648\u062a\u200c\u062a\u0627\u0648\u0646", "\u0b9a\u0bbe\u0bb0\u0bcd\u0bb2\u0b9f\u0bcd\u0b9f\u0bb5\u0bc1\u0ba9\u0bcd", "\u10e8\u10d0\u10e0\u10da\u10dd\u10e2\u10e2\u10d0\u10e3\u10dc\u10d8", "\u30b7\u30e3\u30fc\u30ed\u30c3\u30c8\u30bf\u30a6\u30f3", "\u590f\u6d1b\u7279\u987f", "\uc0ec\ub7ff\ud0c0\uc6b4"], "latitude": 46.23525, "longitude": -63.12671, "location": {"lat": 46.23525, "lon": -63.12671}, "country_code": "CA", "admin1_code": "09", "admin2_code": "", "population": 42402, "timezone": "America/Halifax"}
{"index": {"_index": "geonames_v2", "_id": "5920433"}}
{"name": "Ch\u00e2teauguay", "asciiname": "Chateauguay", "alternatenames": [], "latitude": 45.38338, "longitude": -73.74919, "location": {"lat": 45.38338, "lon": -73.74919}, "country_code": "CA", "admin1_code": "10", "admin2_code": "16", "population": 42786, "timezone": "America/Montreal"}
{"index": {"_index": "geonames_v2", "_id": "5921147"}}
{"name": "Chibougamau", "asciiname": "Chibougamau", "alternatenames": ["YMT"], "latitude": 49.91684, "longitude": -74.36586, "location": {"lat": 49.91684, "lon": -74.36586}, "country_code": "CA", "admin1_code": "10", "admin2_code": "10", "population": 7563, "timezone": "America/Montreal"}
{"index": {"_index": "geonames_v2", "_id": "5921356"}}
{"name": "Chilliwack", "asciiname": "Chilliwack", "alternatenames": ["YCW"], "latitude": 49.16638, "longitude": -121.95257, "location": {"lat": 49.16638, "lon": -121.95257}, "country_code": "CA", "admin1_code": "02", "admin2_code": "5909", "population": 77000, "timezone": "America/Vancouver"}
{"index": {"_index": "geonames_v2", "_id": "5923101"}}
{"name": "Clarence-Rockland", "asciiname": "Clarence-Rockland", "alternatenames": [], "latitude": 45.5501, "longitude": -75.29101, "location": {"lat": 45.5501, "lon": -75.29101}, "country_code": "CA", "admin1_code": "08", "admin2_code": "", "population": 20790, "timezone": "America/Toronto"}
{"index": {"_index": "geonames_v2", "_id": "5924417"}}
{"name": "Coaldale", "asciiname": "Coaldale", "alternatenames": [], "latitude": 49.7167, "longitude": -112.61854, "location": {"lat": 49.7167, "lon": -112.61854}, "country_code": "CA", "admin1_code": "01", "admin2_code": "", "population": 6317, "timezone": "America/Edmonton"}
{"index": {"_index": "geonames_v2", "_id": "5924500"}}
{"name": "Coaticook", "asciiname": "Coaticook", "alternatenames": [], "latitude": 45.13339, "longitude": -71.79907, "location": {"lat": 45.13339, "lon": -71.79907}, "country_code": "CA", "admin1_code": "10", "admin2_code": "05", "population": 7021, "timezone": "America/Montreal"}
{"index": {"_index": "geonames_v2", "_id": "5924579"}}
{"name": "Cobourg", "asciiname": "Cobourg", "alternatenames": ["Cobourg", "Koburg", "XGJ", "ke bao", "kwbwrgh", " awntaryw", "\u041a\u043e\u0431\u0443\u0440\u0433", "\u0643\u0648\u0628\u0648\u0631\u063a\u060c \u0623\u0648\u0646\u062a\u0627\u0631\u064a\u0648", "\u79d1\u5821"], "latitude": 43.95977, "longitude": -78.16515, "location": {"lat": 43.95977, "lon": -78.16515}, "country_code": "CA", "admin1_code": "08", "admin2_code": "", "population": 18099, "timezone": "America/Toronto"}
{"index": {"_index": "geonames_v2", "_id": "5924618"}}
{"name": "Cochrane", "asciiname": "Cochrane", "alternatenames": ["Kokran", "\u041a\u043e\u043a\u0440\u0430\u043d"], "latitude": 51.18341, "longitude": -114.46871, "location": {"lat": 51.18341, "lon": -114.46871}, "country_code": "CA", "admin1_code": "01", "admin2_code": "", "population": 16365, "timezone": "America/Edmonton"}
{"index": {"_index": "geonames_v2", "_id": "5925024"}}
{"name": "Cold Lake", "asciiname": "Cold Lake", "alternatenames": ["Kold Leikas", "Kold Lejk", "Kold Leyk", "Kold-Lejk", "YOD", "kld lyk", "leng hu shi", "\u041a\u043e\u043b\u0434 \u041b\u0435\u0439\u043a", "\u041a\u043e\u043b\u0434 \u041b\u0435\u0458\u043a", "\u041a\u043e\u043b\u0434-\u041b\u0435\u0439\u043a", "\u06a9\u0644\u062f \u0644\u06cc\u06a9", "\u06a9\u0648\u0644\u0688 \u0644\u06cc\u06a9", "\u51b7\u6e56\u5e02"], "latitude": 54.46525, "longitude": -110.18154, "location": {"lat": 54.46525, "lon": -110.18154}, "country_code": "CA", "admin1_code": "01", "admin2_code": "", "population": 11595, "timezone": "America/Edmonton"}
{"index": {"_index": "geonames_v2", "_id": "5925975"}}
{"name": "Collingwood", "asciiname": "Collingwood", "alternatenames": ["Kolingvud", "kwlynjwwd", " awntaryw", "\u041a\u043e\u043b\u0438\u043d\u0433\u0432\u0443\u0434", "\u0643\u0648\u0644\u064a\u0646\u062c\u0648\u0648\u062f\u060c \u0623\u0648\u0646\u062a\u0627\u0631\u064a\u0648"], "latitude": 44.4834, "longitude": -80.21638, "location": {"lat": 44.4834, "lon": -80.21638}, "country_code": "CA", "admin1_code": "08", "admin2_code": "", "population": 15809, "timezone": "America/Toronto"}
{"index": {"_index": "geonames_v2", "_id": "5926268"}}
{"name": "Colwood", "asciiname": "Colwood", "alternatenames": ["Kolvud", "kwlwwd", " kwlwmbya albrytanyt", "\u041a\u043e\u043b\u0432\u0443\u0434", "\u0643\u0648\u0644\u0648\u0648\u062f\u060c \u0643\u0648\u0644\u0648\u0645\u0628\u064a\u0627 \u0627\u0644\u0628\u0631\u064a\u0637\u0627\u0646\u064a\u0629"], "latitude": 48.43293, "longitude": -123.48591, "location": {"lat": 48.43293, "lon": -123.48591}, "country_code": "CA", "admin1_code": "02", "admin2_code": "", "population": 14687, "timezone": "America/Vancouver"}
{"index": {"_index": "geonames_v2", "_id": "5926511"}}
{"name": "Conception Bay South", "asciiname": "Conception Bay South", "alternatenames": [], "latitude": 47.49989, "longitude": -52.99806, "location": {"lat": 47.49989, "lon": -52.99806}, "country_code": "CA", "admin1_code": "05", "admin2_code": "", "population": 17087, "timezone": "America/St_Johns"}
{"index": {"_index": "geonames_v2", "_id": "5926526"}}
{"name": "Concord", "asciiname": "Concord", "alternatenames": [], "latitude": 43.80011, "longitude": -79.48291, "location": {"lat": 43.80011, "lon": -79.48291}, "country_code": "CA", "admin1_code": "08", "admin2_code": "", "population": 8255, "timezone": "America/Toronto"}
{"index": {"_index": "geonames_v2", "_id": "5927689"}}
{"name": "Coquitlam", "asciiname": "Coquitlam", "alternatenames": ["Coquitlam", "kokittoramu", "kokittoramu shi", "kokuittoramu", "\u30b3\u30ad\u30c3\u30c8\u30e9\u30e0", "\u30b3\u30ad\u30c3\u30c8\u30e9\u30e0\u5e02", "\u30b3\u30af\u30a4\u30c3\u30c8\u30e9\u30e0"], "latitude": 49.28297, "longitude": -122.75262, "location": {"lat": 49.28297, "lon": -122.75262}, "country_code": "CA", "admin1_code": "02", "admin2_code": "", "population": 114565, "timezone": "America/Vancouver"}
{"index": {"_index": "geonames_v2", "_id": "5927969"}}
{"name": "Corner Brook", "asciiname": "Corner Brook", "alternatenames": ["YNF"], "latitude": 48.95001, "longitude": -57.95202, "location": {"lat": 48.95001, "lon": -57.95202}, "country_code": "CA", "admin1_code": "05", "admin2_code": "", "population": 18693, "timezone": "America/St_Johns"}
{"index": {"_index": "geonames_v2", "_id": "5928065"}}
{"name": "Cornwall", "asciiname": "Cornwall", "alternatenames": ["Kornvol", "YCC", "kang wo er", "karnwal", "kwrnwal", " awntaryw", "\u041a\u043e\u0440\u043d\u0432\u043e\u043b", "\u0643\u0648\u0631\u0646\u0648\u0627\u0644\u060c \u0623\u0648\u0646\u062a\u0627\u0631\u064a\u0648", "\u06a9\u0627\u0631\u0646\u0648\u0627\u0644", "\u5eb7\u6c83\u5c14"], "latitude": 45.01809, "longitude": -74.72815, "location": {"lat": 45.01809, "lon": -74.72815}, "country_code": "CA", "admin1_code": "08", "admin2_code": "", "population": 48821, "timezone": "America/Toronto"}
{"index": {"_index": "geonames_v2", "_id": "5928488"}}
{"name": "C\u00f4te-Saint-Luc", "asciiname": "Cote-Saint-Luc", "alternatenames": [], "latitude": 45.46536, "longitude": -73.66585, "location": {"lat": 45.46536, "lon": -73.66585}, "country_code": "CA", "admin1_code": "10", "admin2_code": "", "population": 31395, "timezone": "America/Montreal"}
{"index": {"_index": "geonames_v2", "_id": "5930890"}}
{"name": "Courtenay", "asciiname": "Courtenay", "alternatenames": ["Courtenay", "Kortenej", "Kortni", "Kurteneh", "YCA", "kwrtynay", " kwlwmbya albrytanyt", "\u041a\u043e\u0440\u0442\u0435\u043d\u0435\u0439", "\u041a\u043e\u0440\u0442\u043d\u0438", "\u041a\u0443\u0440\u0442\u0435\u043d\u044d", "\u0643\u0648\u0631\u062a\u064a\u0646\u0627\u064a\u060c \u0643\u0648\u0644\u0648\u0645\u0628\u064a\u0627 \u0627\u0644\u0628\u0631\u064a\u0637\u0627\u0646\u064a\u0629", "\u06a9\u0648\u0631\u0679\u06cc\u0646\u06cc\u060c \u0628\u0631\u0679\u0634 \u06a9\u0648\u0644\u0645\u0628\u06cc\u0627"], "latitude": 49.68657, "longitude": -124.9936, "location": {"lat": 49.68657, "lon": -124.9936}, "country_code": "CA", "admin1_code": "02", "admin2_code": "", "population": 32793, "timezone": "America/Vancouver"}
{"index": {"_index": "geonames_v2", "_id": "5931074"}}
{"name": "Cowansville", "asciiname": "Cowansville", "alternatenames": [], "latitude": 45.20008, "longitude": -72.74913, "location": {"lat": 45.20008, "lon": -72.74913}, "country_code": "CA", "admin1_code": "10", "admin2_code": "16", "population": 10887, "timezone": "America/Montreal"}
{"index": {"_index": "geonames_v2", "_id": "5931800"}}
{"name": "Cranbrook", "asciiname": "Cranbrook", "alternatenames": ["Kranbruk", "YXC", "kranbrwk", " kwlwmbya albrytanyt", "\u041a\u0440\u0430\u043d\u0431\u0440\u0443\u043a", "\u0643\u0631\u0627\u0646\u0628\u0631\u0648\u0643\u060c \u0643\u0648\u0644\u0648\u0645\u0628\u064a\u0627 \u0627\u0644\u0628\u0631\u064a\u0637\u0627\u0646\u064a\u0629"], "latitude": 49.49991, "longitude": -115.76879, "location": {"lat": 49.49991, "lon": -115.76879}, "country_code": "CA", "admin1_code": "02", "admin2_code": "", "population": 18610, "timezone": "America/Edmonton"}
{"index": {"_index": "geonames_v2", "_id": "5935277"}}
{"name": "Dartmouth", "asciiname": "Dartmouth", "alternatenames": ["\u0d21\u0d3e\u0d7c\u0d1f\u0d4d\u0d2e\u0d57\u0d24\u0d4d"], "latitude": 44.67134, "longitude": -63.57719, "location": {"lat": 44.67134, "lon": -63.57719}, "country_code": "CA", "admin1_code": "07", "admin2_code": "", "population": 101343, "timezone": "America/Halifax"}
{"index": {"_index": "geonames_v2", "_id": "5935341"}}
{"name": "Dauphin", "asciiname": "Dauphin", "alternatenames": ["Dofen", "Dofin", "YDN", "\u0414\u043e\u0444\u0435\u043d", "\u0414\u043e\u0444\u0456\u043d", "\u0688\u0627\u0641\u0646\u060c \u0645\u06cc\u0646\u06cc \u0679\u0648\u0628\u0627", "\u0688\u0648\u0641\u0646"], "latitude": 51.14941, "longitude": -100.05023, "location": {"lat": 51.14941, "lon": -100.05023}, "country_code": "CA", "admin1_code": "03", "admin2_code": "", "population": 8418, "timezone": "America/Winnipeg"}
{"index": {"_index": "geonames_v2", "_id": "5935804"}}
{"name": "Dawson Creek", "asciiname": "Dawson Creek", "alternatenames": ["Doson Krik", "Doson-Krik", "YDQ", "dao sen ke li ke", "doseunkeulig", "dwsn kryk", "dxw san kh rik", "\u0414\u043e\u0441\u043e\u043d \u041a\u0440\u0438\u043a", "\u0414\u043e\u0441\u043e\u043d-\u041a\u0440\u0438\u043a", "\u062f\u0648\u0633\u0646 \u0643\u0631\u064a\u0643", "\u0688\u0627\u0633\u0646\u06a9\u0631\u06cc\u06a9", "\u0e14\u0e2d\u0e27\u0e4c\u0e2a\u0e31\u0e19\u0e04\u0e23\u0e35\u0e01", "\u9053\u68ee\u514b\u91cc\u514b", "\ub3c4\uc2a8\ud06c\ub9ad"], "latitude": 55.7666, "longitude": -120.23616, "location": {"lat": 55.7666, "lon": -120.23616}, "country_code": "CA", "admin1_code": "02", "admin2_code": "", "population": 10802, "timezone": "America/Dawson_Creek"}
{"index": {"_index": "geonames_v2", "_id": "5937612"}}
{"name": "Delson", "asciiname": "Delson", "alternatenames": [], "latitude": 45.36678, "longitude": -73.54917, "location": {"lat": 45.36678, "lon": -73.54917}, "country_code": "CA", "admin1_code": "10", "admin2_code": "16", "population": 7322, "timezone": "America/Montreal"}
{"index": {"_index": "geonames_v2", "_id": "5937615"}}
{"name": "Delta", "asciiname": "Delta", "alternatenames": ["Del'ta", "\u0414\u0435\u043b\u044c\u0442\u0430"], "latitude": 49.14399, "longitude": -122.9068, "location": {"lat": 49.14399, "lon": -122.9068}, "country_code": "CA", "admin1_code": "02", "admin2_code": "", "population": 101668, "timezone": "America/Vancouver"}
{"index": {"_index": "geonames_v2", "_id": "5938513"}}
{"name": "Deux-Montagnes", "asciiname": "Deux-Montagnes", "alternatenames": [], "latitude": 45.53455, "longitude": -73.90168, "location": {"lat": 45.53455, "lon": -73.90168}, "country_code": "CA", "admin1_code": "10", "admin2_code": "15", "population": 17402, "timezone": "America/Montreal"}
{"index": {"_index": "geonames_v2", "_id": "5938801"}}
{"name": "Devon", "asciiname": "Devon", "alternatenames": [], "latitude": 53.36683, "longitude": -113.73533, "location": {"lat": 53.36683, "lon": -113.73533}, "country_code": "CA", "admin1_code": "01", "admin2_code": "", "population": 5225, "timezone": "America/Edmonton"}
{"index": {"_index": "geonames_v2", "_id": "5939219"}}
{"name": "Dieppe", "asciiname": "Dieppe", "alternatenames": ["D'ep", "dieppu", "\u0414\u044c\u0435\u043f", "\u0688\u06cc\u067e\u06cc", "\u30c7\u30a3\u30a8\u30c3\u30d7"], "latitude": 46.07844, "longitude": -64.68735, "location": {"lat": 46.07844, "lon": -64.68735}, "country_code": "CA", "admin1_code": "04", "admin2_code": "", "population": 18565, "timezone": "America/Moncton"}
{"index": {"_index": "geonames_v2", "_id": "5940934"}}
{"name": "Dolbeau-Mistassini", "asciiname": "Dolbeau-Mistassini", "alternatenames": ["Dolbeau-Mistassini", "YDO"], "latitude": 48.8786, "longitude": -72.23142, "location": {"lat": 48.8786, "lon": -72.23142}, "country_code": "CA", "admin1_code": "10", "admin2_code": "02", "population": 12916, "timezone": "America/Montreal"}
{"index": {"_index": "geonames_v2", "_id": "5940956"}}
{"name": "Dollard-Des Ormeaux", "asciiname": "Dollard-Des Ormeaux", "alternatenames": [], "latitude": 45.49452, "longitude": -73.82419, "location": {"lat": 45.49452, "lon": -73.82419}, "country_code": "CA", "admin1_code": "10", "admin2_code": "", "population": 48930, "timezone": "America/Montreal"}
{"index": {"_index": "geonames_v2", "_id": "5941761"}}
{"name": "Dorchester", "asciiname": "Dorchester", "alternatenames": [], "latitude": 42.98339, "longitude": -81.06643, "location": {"lat": 42.98339, "lon": -81.06643}, "country_code": "CA", "admin1_code": "08", "admin2_code": "", "population": 9329, "timezone": "America/Toronto"}
{"index": {"_index": "geonames_v2", "_id": "5941925"}}
{"name": "Dorval", "asciiname": "Dorval", "alternatenames": [], "latitude": 45.4473, "longitude": -73.75335, "location": {"lat": 45.4473, "lon": -73.75335}, "country_code": "CA", "admin1_code": "10", "admin2_code": "", "population": 18088, "timezone": "America/Montreal"}
{"index": {"_index": "geonames_v2", "_id": "5942547"}}
{"name": "Drayton Valley", "asciiname": "Drayton Valley", "alternatenames": ["YDC"], "latitude": 53.21682, "longitude": -114.98544, "location": {"lat": 53.21682, "lon": -114.98544}, "country_code": "CA", "admin1_code": "01", "admin2_code": "", "population": 6099, "timezone": "America/Edmonton"}
{"index": {"_index": "geonames_v2", "_id": "5942845"}}
{"name": "Drummondville", "asciiname": "Drummondville", "alternatenames": ["Drammondvill", "Drammonvil'", "Dramondvil", "XDM", "doramonbiru", "drwmwndwyl", "drwmwnfyl", "\u0414\u0440\u0430\u043c\u043c\u043e\u043d\u0432\u0456\u043b\u044c", "\u0414\u0440\u0430\u043c\u043c\u043e\u043d\u0434\u0432\u0438\u043b\u043b", "\u0414\u0440\u0430\u043c\u043e\u043d\u0434\u0432\u0438\u043b", "\u062f\u0631\u0648\u0645\u0648\u0646\u062f\u0648\u06cc\u0644", "\u062f\u0631\u0648\u0645\u0648\u0646\u0641\u064a\u0644", "\u0688\u0631\u0645\u0646\u0688\u0648\u0644\u06d2", "\u30c9\u30e9\u30e2\u30f3\u30d3\u30eb"], "latitude": 45.88336, "longitude": -72.48241, "location": {"lat": 45.88336, "lon": -72.48241}, "country_code": "CA", "admin1_code": "10", "admin2_code": "17", "population": 59489, "timezone": "America/Montreal"}
{"index": {"_index": "geonames_v2", "_id": "5942913"}}
{"name": "Dryden", "asciiname": "Dryden", "alternatenames": ["YHD"], "latitude": 49.78334, "longitude": -92.75032, "location": {"lat": 49.78334, "lon": -92.75032}, "country_code": "CA", "admin1_code": "08", "admin2_code": "", "population": 8195, "timezone": "America/Winnipeg"}
{"index": {"_index": "geonames_v2", "_id": "5943865"}}
{"name": "Duncan", "asciiname": "Duncan", "alternatenames": ["DUQ", "Duncan", "Dunkan", "\u0414\u0443\u043d\u043a\u0430\u043d"], "latitude": 48.78293, "longitude": -123.70266, "location": {"lat": 48.78293, "lon": -123.70266}, "country_code": "CA", "admin1_code": "02", "admin2_code": "", "population": 22199, "timezone": "America/Vancouver"}
{"index": {"_index": "geonames_v2", "_id": "5946768"}}
{"name": "Edmonton", "asciiname": "Edmonton", "alternatenames": ["Edmonton", "Edmontona", "Edmontonas", "Edmontono", "Edmundopolis", "Edmuntun", "Ehdmonton", "Entmonton", "Gorad Ehdmantan", "YEA", "admwntwn", "ai de meng dun", "edamantana", "edeumeonteon", "edomonton", "etmantan", "\u00c9dmonton", "\u0388\u03bd\u03c4\u03bc\u03bf\u03bd\u03c4\u03bf\u03bd", "\u0413\u043e\u0440\u0430\u0434 \u042d\u0434\u043c\u0430\u043d\u0442\u0430\u043d", "\u0415\u0434\u043c\u043e\u043d\u0442\u043e\u043d", "\u0415\u0434\u043c\u044a\u043d\u0442\u044a\u043d", "\u042d\u0434\u043c\u043e\u043d\u0442\u043e\u043d", "\u05d0\u05d3\u05de\u05d5\u05e0\u05d8\u05d5\u05df", "\u0625\u062f\u0645\u0648\u0646\u062a\u0648\u0646", "\u0627\u062f\u0645\u0648\u0646\u062a\u0648\u0646", "\u0627\u06cc\u0688\u0645\u0646\u0679\u0646", "\u090f\u0921\u092e\u0902\u091f\u0928", "\u0b8e\u0b9f\u0bcd\u0bae\u0ba9\u0bcd\u0b9f\u0ba9\u0bcd", "\u0f68\u0f7a\u0f0b\u0f4f\u0f72\u0f0b\u0f58\u0f7c\u0f53\u0f0b\u0f50\u0f7c\u0f53\u0f0d", "\u10d4\u10d3\u10db\u10dd\u10dc\u10e2\u10dd\u10dc\u10d8", "\u140a\u14a5\u1422\u1472\u1427\u148b\u140a\u1427\u1422\u1472\u1426\u1403\u1472\u1423", "\u30a8\u30c9\u30e2\u30f3\u30c8\u30f3", "\u57c3\u5fb7\u8499\u987f", "\uc5d0\ub4dc\uba3c\ud134"], "latitude": 53.55014, "longitude": -113.46871, "location": {"lat": 53.55014, "lon": -113.46871}, "country_code": "CA", "admin1_code": "01", "admin2_code": "", "population": 712391, "timezone": "America/Edmonton"}
{"index": {"_index": "geonames_v2", "_id": "5946820"}}
{"name": "Edson", "asciiname": "Edson", "alternatenames": ["Edson", "YET", "\u0415\u0434\u0441\u043e\u043d"], "latitude": 53.58345, "longitude": -116.43559, "location": {"lat": 53.58345, "lon": -116.43559}, "country_code": "CA", "admin1_code": "01", "admin2_code": "", "population": 7975, "timezone": "America/Edmonton"}
{"index": {"_index": "geonames_v2", "_id": "5947866"}}
{"name": "Elliot Lake", "asciiname": "Elliot Lake", "alternatenames": ["Eliot Lejk", "YEL", "alywt layk", "eriottoreiku", "\u0415\u043b\u0438\u043e\u0442 \u041b\u0435\u0458\u043a", "\u0625\u0644\u064a\u0648\u062a \u0644\u0627\u064a\u0643", "\u0627\u0644\u06cc\u0679 \u0644\u06cc\u06a9", "\u30a8\u30ea\u30aa\u30c3\u30c8\u30ec\u30a4\u30af"], "latitude": 46.38336, "longitude": -82.63315, "location": {"lat": 46.38336, "lon": -82.63315}, "country_code": "CA", "admin1_code": "08", "admin2_code": "", "population": 12508, "timezone": "America/Toronto"}
{"index": {"_index": "geonames_v2", "_id": "5949568"}}
{"name": "Estevan", "asciiname": "Estevan", "alternatenames": ["YEN"], "latitude": 49.13337, "longitude": -102.98422, "location": {"lat": 49.13337, "lon": -102.98422}, "country_code": "CA", "admin1_code": "11", "admin2_code": "", "population": 9904, "timezone": "America/Regina"}
{"index": {"_index": "geonames_v2", "_id": "5950267"}}
{"name": "Etobicoke", "asciiname": "Etobicoke", "alternatenames": ["Ehtobiko", "Etobiko", "etobiko", "yi tao bi gu", "\u0415\u0442\u043e\u0431\u0456\u043a\u043e", "\u042d\u0442\u043e\u0431\u0438\u043a\u043e", "\u30a8\u30c8\u30d3\u30b3", "\u6021\u9676\u78a7\u8c37", "\uc5d0\ud1a0\ube44\ucf54"], "latitude": 43.65421, "longitude": -79.56711, "location": {"lat": 43.65421, "lon": -79.56711}, "country_code": "CA", "admin1_code": "08", "admin2_code": "", "population": 347948, "timezone": "America/Toronto"}
{"index": {"_index": "geonames_v2", "_id": "5951644"}}
{"name": "Farnham", "asciiname": "Farnham", "alternatenames": [], "latitude": 45.28338, "longitude": -72.98244, "location": {"lat": 45.28338, "lon": -72.98244}, "country_code": "CA", "admin1_code": "10", "admin2_code": "16", "population": 6061, "timezone": "America/Montreal"}
{"index": {"_index": "geonames_v2", "_id": "5952370"}}
{"name": "Fernie", "asciiname": "Fernie", "alternatenames": ["Ferni", "\u0424\u0435\u0440\u043d\u0438"], "latitude": 49.49996, "longitude": -115.06871, "location": {"lat": 49.49996, "lon": -115.06871}, "country_code": "CA", "admin1_code": "02", "admin2_code": "", "population": 5019, "timezone": "America/Edmonton"}
{"index": {"_index": "geonames_v2", "_id": "5954718"}}
{"name": "Flin Flon", "asciiname": "Flin Flon", "alternatenames": ["Flin Flon", "Flin-Flon", "YFO", "fln flwn", "\u0424\u043b\u0438\u043d \u0424\u043b\u043e\u043d", "\u0424\u043b\u0438\u043d-\u0424\u043b\u043e\u043d", "\u0424\u043b\u0456\u043d-\u0424\u043b\u043e\u043d", "\u0641\u0644\u0646 \u0641\u0644\u0627\u0646\u060c \u0645\u06cc\u0646\u06cc \u0679\u0648\u0628\u0627", "\u0641\u0644\u0646 \u0641\u0644\u0648\u0646"], "latitude": 54.76824, "longitude": -101.86497, "location": {"lat": 54.76824, "lon": -101.86497}, "country_code": "CA", "admin1_code": "03", "admin2_code": "", "population": 6002, "timezone": "America/Winnipeg"}
{"index": {"_index": "geonames_v2", "_id": "5955815"}}
{"name": "Fort Erie", "asciiname": "Fort Erie", "alternatenames": ["Fort Erie", "Fort Iri", "Fort \u00c9ri\u00e9", "Fort-Eri", "fotoeri", "fwrt ayry", " awntaryw", "yi li bao", "\u0424\u043e\u0440\u0442 \u0418\u0440\u0438", "\u0424\u043e\u0440\u0442-\u0415\u0440\u0456", "\u0641\u0648\u0631\u062a \u0625\u064a\u0631\u064a\u060c \u0623\u0648\u0646\u062a\u0627\u0631\u064a\u0648", "\u30d5\u30a9\u30fc\u30c8\u30a8\u30ea\u30fc", "\u4f0a\u5229\u5821"], "latitude": 42.90012, "longitude": -78.93286, "location": {"lat": 42.90012, "lon": -78.93286}, "country_code": "CA", "admin1_code": "08", "admin2_code": "", "population": 15953, "timezone": "America/Toronto"}
{"index": {"_index": "geonames_v2", "_id": "5955826"}}
{"name": "Fort Frances", "asciiname": "Fort Frances", "alternatenames": ["YAG"], "latitude": 48.59988, "longitude": -93.4003, "location": {"lat": 48.59988, "lon": -93.4003}, "country_code": "CA", "admin1_code": "08", "admin2_code": "", "population": 7931, "timezone": "America/Winnipeg"}
{"index": {"_index": "geonames_v2", "_id": "5955895"}}
{"name": "Fort McMurray", "asciiname": "Fort McMurray", "alternatenames": ["Fort Makmari", "Fort-MakMerrej", "Fort-MakMerrey", "YMM", "fotomakumare", "fwrt makmwray", "poteumaegmeoli", "\u0424\u043e\u0440\u0442 \u041c\u0430\u043a\u043c\u0430\u0440\u0438", "\u0424\u043e\u0440\u0442-\u041c\u0430\u043a\u041c\u0435\u0440\u0440\u0435\u0439", "\u0641\u0648\u0631\u062a \u0645\u0627\u0643\u0645\u0648\u0631\u0627\u064a", "\u0641\u0648\u0631\u062a \u0645\u06a9\u200c\u0645\u0648\u0631\u06cc", "\u30d5\u30a9\u30fc\u30c8\u30de\u30af\u30de\u30ec\u30fc", "\ud3ec\ud2b8\ub9e5\uba38\ub9ac"], "latitude": 56.72676, "longitude": -111.38103, "location": {"lat": 56.72676, "lon": -111.38103}, "country_code": "CA", "admin1_code": "01", "admin2_code": "", "population": 76000, "timezone": "America/Edmonton"}
{"index": {"_index": "geonames_v2", "_id": "5955948"}}
{"name": "Fort Saskatchewan", "asciiname": "Fort Saskatchewan", "alternatenames": ["Fort Saskacevanas", "Fort Saskachevan", "Fort Saska\u010devanas", "Fort-Saskachevan", "frt saskachwan", "fwrt saskatshwan", "\u0424\u043e\u0440\u0442 \u0421\u0430\u0441\u043a\u0430\u0447\u0435\u0432\u0430\u043d", "\u0424\u043e\u0440\u0442-\u0421\u0430\u0441\u043a\u0430\u0447\u0435\u0432\u0430\u043d", "\u0641\u0631\u062a \u0633\u0627\u0633\u06a9\u0627\u0686\u0648\u0627\u0646", "\u0641\u0648\u0631\u062a \u0633\u0627\u0633\u0643\u0627\u062a\u0634\u0648\u0627\u0646"], "latitude": 53.71684, "longitude": -113.2187, "location": {"lat": 53.71684, "lon": -113.2187}, "country_code": "CA", "admin1_code": "01", "admin2_code": "", "population": 14957, "timezone": "America/Edmonton"}
{"index": {"_index": "geonames_v2", "_id": "5955960"}}
{"name": "Fort St. John", "asciiname": "Fort St. John", "alternatenames": ["Fort Sent DZon", "Fort-Sent-Dzhon", "YXJ", "fwrt sant jwn", " kwlwmbya albrytanyt", "\u0424\u043e\u0440\u0442 \u0421\u0435\u043d\u0442 \u040f\u043e\u043d", "\u0424\u043e\u0440\u0442-\u0421\u0435\u043d\u0442-\u0414\u0436\u043e\u043d", "\u0641\u0648\u0631\u062a \u0633\u0627\u0646\u062a \u062c\u0648\u0646\u060c \u0643\u0648\u0644\u0648\u0645\u0628\u064a\u0627 \u0627\u0644\u0628\u0631\u064a\u0637\u0627\u0646\u064a\u0629"], "latitude": 56.24988, "longitude": -120.85292, "location": {"lat": 56.24988, "lon": -120.85292}, "country_code": "CA", "admin1_code": "02", "admin2_code": "", "population": 17402, "timezone": "America/Dawson_Creek"}
{"index": {"_index": "geonames_v2", "_id": "5957776"}}
{"name": "Fredericton", "asciiname": "Fredericton", "alternatenames": ["Fredericopolis", "Fredericton", "Frederikton", "Frederiktonas", "Frederiktono", "Frederiktun", "Gorad Frehdehryktan", "Phrentrikton", "YFC", "frdryktwn", "frydryktwn", "fu lei de li ke dun", "furederikuton", "hpireteriktan", "peuledeoligteon", "phredariktana", "prdryqtwn", "\u03a6\u03c1\u03ad\u03bd\u03c4\u03c1\u03b9\u03ba\u03c4\u03bf\u03bd", "\u0413\u043e\u0440\u0430\u0434 \u0424\u0440\u044d\u0434\u044d\u0440\u044b\u043a\u0442\u0430\u043d", "\u0424\u0440\u0435\u0434\u0435\u0440\u0438\u043a\u0442\u043e\u043d", "\u0424\u0440\u0435\u0434\u0435\u0440\u0438\u043a\u0442\u044a\u043d", "\u0424\u0440\u0435\u0434\u0435\u0440\u0456\u043a\u0442\u043e\u043d", "\u05e4\u05e8\u05d3\u05e8\u05d9\u05e7\u05d8\u05d5\u05df", "\u0641\u0631\u062f\u0631\u06cc\u06a9\u062a\u0648\u0646", "\u0641\u0631\u064a\u062f\u0631\u064a\u0643\u062a\u0648\u0646", "\u0641\u0631\u06cc\u0688\u0631\u06a9\u0679\u0646", "\u0641\u0631\u06cc\u0688\u0631\u06cc\u06a9\u0679\u0646", "\u092b\u094d\u0930\u0947\u0921\u0930\u093f\u0915\u094d\u091f\u0928", "\u0b83\u0baa\u0bbf\u0bb0\u0bc6\u0b9f\u0bc6\u0bb0\u0bbf\u0b95\u0bcd\u0b9f\u0ba9\u0bcd", "\u10e4\u10e0\u10d4\u10d3\u10d4\u10e0\u10d8\u10d9\u10e2\u10dd\u10dc\u10d8", "\u30d5\u30ec\u30c7\u30ea\u30af\u30c8\u30f3", "\u5f17\u96f7\u5fb7\u91cc\u514b\u9813", "\ud504\ub808\ub354\ub9ad\ud134"], "latitude": 45.94541, "longitude": -66.66558, "location": {"lat": 45.94541, "lon": -66.66558}, "country_code": "CA", "admin1_code": "04", "admin2_code": "", "population": 52337, "timezone": "America/Moncton"}
{"index": {"_index": "geonames_v2", "_id": "5959326"}}
{"name": "Gananoque", "asciiname": "Gananoque", "alternatenames": ["XGW"], "latitude": 44.33342, "longitude": -76.16607, "location": {"lat": 44.33342, "lon": -76.16607}, "country_code": "CA", "admin1_code": "08", "admin2_code": "", "population": 5458, "timezone": "America/Toronto"}
{"index": {"_index": "geonames_v2", "_id": "5959878"}}
{"name": "Gasp\u00e9", "asciiname": "Gaspe", "alternatenames": ["Gaspe", "Gasp\u00e9", "Gasp\u0117", "YGP", "gasph", " kbk", "gasupe", "ghasbyh", " kybk", "gysp", "\u0413\u0430\u0441\u043f\u0435", "\u0490\u0430\u0441\u043f\u0435", "\u063a\u0627\u0633\u0628\u064a\u0647\u060c \u0643\u064a\u0628\u0643", "\u06af\u0627\u0633\u067e\u0647\u060c \u06a9\u0628\u06a9", "\u06af\u06cc\u0633\u067e", "\u15f4\u1505\u15eb", "\u30ac\u30b9\u30da"], "latitude": 48.83341, "longitude": -64.48194, "location": {"lat": 48.83341, "lon": -64.48194}, "country_code": "CA", "admin1_code": "10", "admin2_code": "11", "population": 14819, "timezone": "America/Montreal"}
{"index": {"_index": "geonames_v2", "_id": "5959974"}}
{"name": "Gatineau", "asciiname": "Gatineau", "alternatenames": ["Gatineau", "Gatino", "Sablono:TabelKapoLauCarta", "gatino", "ghatynw", "jia di nuo", "jia di nuo shi", "\u015cablono:TabelKapoLa\u016d\u0108arta", "\u0413\u0430\u0442\u0438\u043d\u043e", "\u0413\u0430\u0442\u0456\u043d\u043e", "\u063a\u0627\u062a\u064a\u0646\u0648", "\u06af\u06cc\u0679\u06cc\u0646\u06cc\u0648", "\u10d2\u10d0\u10e2\u10d8\u10dc\u10dd", "\u30ac\u30c6\u30a3\u30ce\u30fc", "\u52a0\u8482\u8afe", "\u52a0\u8482\u8bfa\u5e02", "\uac00\ud2f0\ub178"], "latitude": 45.47723, "longitude": -75.70164, "location": {"lat": 45.47723, "lon": -75.70164}, "country_code": "CA", "admin1_code": "10", "admin2_code": "07", "population": 242124, "timezone": "America/Montreal"}
{"index": {"_index": "geonames_v2", "_id": "5960971"}}
{"name": "Gibsons", "asciiname": "Gibsons", "alternatenames": [], "latitude": 49.39539, "longitude": -123.50555, "location": {"lat": 49.39539, "lon": -123.50555}, "country_code": "CA", "admin1_code": "02", "admin2_code": "5929", "population": 6821, "timezone": "America/Vancouver"}
{"index": {"_index": "geonames_v2", "_id": "5961564"}}
{"name": "Glace Bay", "asciiname": "Glace Bay", "alternatenames": [], "latitude": 46.19695, "longitude": -59.95698, "location": {"lat": 46.19695, "lon": -59.95698}, "country_code": "CA", "admin1_code": "07", "admin2_code": "", "population": 19968, "timezone": "America/Glace_Bay"}
{"index": {"_index": "geonames_v2", "_id": "5962442"}}
{"name": "Goderich", "asciiname": "Goderich", "alternatenames": ["Godrich", "godoritchi", "\u0413\u043e\u0434\u0440\u0438\u0447", "\u06af\u0648\u0688\u0631\u0686\u060c \u0627\u0648\u0646\u0679\u0627\u0631\u06cc\u0648", "\u30b4\u30c9\u30ea\u30c3\u30c1"], "latitude": 43.75008, "longitude": -81.71648, "location": {"lat": 43.75008, "lon": -81.71648}, "country_code": "CA", "admin1_code": "08", "admin2_code": "", "population": 8032, "timezone": "America/Toronto"}
{"index": {"_index": "geonames_v2", "_id": "5964215"}}
{"name": "Granby", "asciiname": "Granby", "alternatenames": ["Gorad Granbi", "Granbi", "ge lan bi", "ghranby", "granby", " kbk", "grymby", "\u0413\u043e\u0440\u0430\u0434 \u0413\u0440\u0430\u043d\u0431\u0456", "\u0413\u0440\u0430\u043d\u0431\u0438", "\u0413\u0440\u0430\u043d\u0431\u0456", "\u063a\u0631\u0627\u0646\u0628\u064a", "\u06af\u0631\u0627\u0646\u0628\u06cc\u060c \u06a9\u0628\u06a9", "\u06af\u0631\u06cc\u0645\u0628\u06cc", "\u683c\u5170\u6bd4"], "latitude": 45.40008, "longitude": -72.73243, "location": {"lat": 45.40008, "lon": -72.73243}, "country_code": "CA", "admin1_code": "10", "admin2_code": "16", "population": 53979, "timezone": "America/Montreal"}
{"index": {"_index": "geonames_v2", "_id": "5964347"}}
{"name": "Grande Prairie", "asciiname": "Grande Prairie", "alternatenames": ["Gorad Grand-Prehry", "Gran Preri", "Grand Preri", "Grand-Preri", "Qrand-Preri", "YQU", "geulaendipeuleli", "ghrand brary", "grnd pryry", "\u0413\u043e\u0440\u0430\u0434 \u0413\u0440\u0430\u043d\u0434-\u041f\u0440\u044d\u0440\u044b", "\u0413\u0440\u0430\u043d\u0434 \u041f\u0440\u0435\u0440\u0438", "\u0413\u0440\u0430\u043d\u0434-\u041f\u0440\u0435\u0440\u0438", "\u0413\u0440\u0430\u043d\u0434-\u041f\u0440\u0435\u0440\u0456", "\u063a\u0631\u0627\u0646\u062f \u0628\u0631\u0627\u0631\u064a", "\u06af\u0631\u0627\u0646\u0688 \u067e\u0631\u0627\u0626\u0631\u06cc", "\u06af\u0631\u0646\u062f \u067e\u0631\u06cc\u0631\u06cc", "\u06af\u0631\u06cc\u0646\u0688 \u067e\u0631\u06cc\u0631\u06cc", "\u10d2\u10e0\u10d0\u10dc\u10d3\u10d4-\u10de\u10e0\u10d4\u10e0\u10d8\u10d0", "\uadf8\ub79c\ub514\ud504\ub808\ub9ac"], "latitude": 55.16667, "longitude": -118.80271, "location": {"lat": 55.16667, "lon": -118.80271}, "country_code": "CA", "admin1_code": "01", "admin2_code": "", "population": 41462, "timezone": "America/Edmonton"}
{"index": {"_index": "geonames_v2", "_id": "5964378"}}
{"name": "Grand Falls-Windsor", "asciiname": "Grand Falls-Windsor", "alternatenames": [], "latitude": 48.93324, "longitude": -55.66492, "location": {"lat": 48.93324, "lon": -55.66492}, "country_code": "CA", "admin1_code": "05", "admin2_code": "", "population": 12076, "timezone": "America/St_Johns"}
{"index": {"_index": "geonames_v2", "_id": "5964700"}}
{"name": "Greater Sudbury", "asciiname": "Greater Sudbury", "alternatenames": ["Bol'shoj Sadberi", "Gran Sudbury", "Grand Sudbury", "Greater Sudbury", "Sadberi", "Sadberis", "Sudbury", "Veliki Sadberi", "YSB", "jrytr sadbary", " awntaryw", "sadobari", "seodeubeli", "\u0411\u043e\u043b\u044c\u0448\u043e\u0439 \u0421\u0430\u0434\u0431\u0435\u0440\u0438", "\u0412\u0435\u043b\u0438\u043a\u0438 \u0421\u0430\u0434\u0431\u0435\u0440\u0438", "\u0421\u0430\u0434\u0431\u0435\u0440\u0438", "\u0421\u0430\u0434\u0431\u0435\u0440\u0456", "\u062c\u0631\u064a\u062a\u0631 \u0633\u0627\u062f\u0628\u0627\u0631\u064a\u060c \u0623\u0648\u0646\u062a\u0627\u0631\u064a\u0648", "\u06af\u0631\u06cc\u0679\u0631 \u0633\u0688\u0628\u0631\u06cc", "\u30b5\u30c9\u30d0\u30ea\u30fc", "\uc11c\ub4dc\ubca0\ub9ac"], "latitude": 46.49, "longitude": -80.99001, "location": {"lat": 46.49, "lon": -80.99001}, "country_code": "CA", "admin1_code": "08", "admin2_code": "", "population": 157857, "timezone": "America/Toronto"}
{"index": {"_index": "geonames_v2", "_id": "5965546"}}
{"name": "Gravenhurst", "asciiname": "Gravenhurst", "alternatenames": [], "latitude": 44.91681, "longitude": -79.36633, "location": {"lat": 44.91681, "lon": -79.36633}, "country_code": "CA", "admin1_code": "08", "admin2_code": "", "population": 5839, "timezone": "America/Toronto"}
{"index": {"_index": "geonames_v2", "_id": "5965812"}}
{"name": "Greater Napanee", "asciiname": "Greater Napanee", "alternatenames": ["Napanee"], "latitude": 44.25012, "longitude": -76.94944, "location": {"lat": 44.25012, "lon": -76.94944}, "country_code": "CA", "admin1_code": "08", "admin2_code": "", "population": 15132, "timezone": "America/Toronto"}
{"index": {"_index": "geonames_v2", "_id": "5966689"}}
{"name": "Greenwood", "asciiname": "Greenwood", "alternatenames": ["YZX"], "latitude": 44.98345, "longitude": -64.89879, "location": {"lat": 44.98345, "lon": -64.89879}, "country_code": "CA", "admin1_code": "07", "admin2_code": "", "population": 6915, "timezone": "America/Halifax"}
{"index": {"_index": "geonames_v2", "_id": "5967629"}}
{"name": "Guelph", "asciiname": "Guelph", "alternatenames": ["Gelf", "Guelfas", "Guelph", "Gvelf", "XIA", "gerufu", "ghwylf", "gui hu", "gwelpeu", "gywlf", "\u0413\u0432\u0435\u043b\u0444", "\u0413\u0435\u043b\u0444", "\u063a\u0648\u064a\u0644\u0641", "\u06af\u06cc\u0648\u0644\u0641", "\u30b2\u30eb\u30d5", "\u8cb4\u6e56", "\uadac\ud504"], "latitude": 43.54594, "longitude": -80.25599, "location": {"lat": 43.54594, "lon": -80.25599}, "country_code": "CA", "admin1_code": "08", "admin2_code": "6177913", "population": 115760, "timezone": "America/Toronto"}
{"index": {"_index": "geonames_v2", "_id": "5969782"}}
{"name": "Hamilton", "asciiname": "Hamilton", "alternatenames": ["Gamil'ton", "Gorad Gamil'tan", "Hamilton i Ontario", "Hamiltona", "Hamiltonas", "Hamiltono", "Khamilton", "Khamiltun", "amiltan", "ha mi er dun", "haemilteon", "hamiruton", "hamyltwn", "hemiltana", "hmyltwn", "\u0413\u0430\u043c\u0438\u043b\u044c\u0442\u043e\u043d", "\u0413\u0430\u043c\u0456\u043b\u044c\u0442\u043e\u043d", "\u0413\u043e\u0440\u0430\u0434 \u0413\u0430\u043c\u0456\u043b\u044c\u0442\u0430\u043d", "\u0425\u0430\u043c\u0438\u043b\u0442\u043e\u043d", "\u0425\u0430\u043c\u0438\u043b\u0442\u044a\u043d", "\u05d4\u05de\u05d9\u05dc\u05d8\u05d5\u05df", "\u0647\u0627\u0645\u064a\u0644\u062a\u0648\u0646", "\u0647\u0645\u06cc\u0644\u062a\u0648\u0646", "\u06c1\u0627\u0645\u0644\u0679\u0646", "\u06c1\u06cc\u0645\u0644\u0679\u0646\u060c \u0627\u0646\u0679\u0627\u0631\u06cc\u0648", "\u0939\u0945\u092e\u093f\u0932\u094d\u091f\u0928", "\u0b86\u0bae\u0bbf\u0bb2\u0bcd\u0b9f\u0ba9\u0bcd", "\u10f0\u10d0\u10db\u10d8\u10da\u10e2\u10dd\u10dc\u10d8", "\u30cf\u30df\u30eb\u30c8\u30f3", "\u54c8\u5bc6\u5c14\u987f", "\ud574\ubc00\ud134"], "latitude": 43.25011, "longitude": -79.84963, "location": {"lat": 43.25011, "lon": -79.84963}, "country_code": "CA", "admin1_code": "08", "admin2_code": "", "population": 519949, "timezone": "America/Toronto"}
{"index": {"_index": "geonames_v2", "_id": "5970014"}}
{"name": "Hampstead", "asciiname": "Hampstead", "alternatenames": [], "latitude": 45.48064, "longitude": -73.66307, "location": {"lat": 45.48064, "lon": -73.66307}, "country_code": "CA", "admin1_code": "10", "admin2_code": "", "population": 6996, "timezone": "America/Montreal"}
{"index": {"_index": "geonames_v2", "_id": "5970063"}}
{"name": "Hanceville", "asciiname": "Hanceville", "alternatenames": [], "latitude": 51.91922, "longitude": -123.04458, "location": {"lat": 51.91922, "lon": -123.04458}, "country_code": "CA", "admin1_code": "02", "admin2_code": "", "population": 10000, "timezone": "America/Vancouver"}
{"index": {"_index": "geonames_v2", "_id": "5970301"}}
{"name": "Hanover", "asciiname": "Hanover", "alternatenames": [], "latitude": 44.15009, "longitude": -81.03303, "location": {"lat": 44.15009, "lon": -81.03303}, "country_code": "CA", "admin1_code": "08", "admin2_code": "", "population": 7255, "timezone": "America/Toronto"}
{"index": {"_index": "geonames_v2", "_id": "5970458"}}
{"name": "Happy Valley-Goose Bay", "asciiname": "Happy Valley-Goose Bay", "alternatenames": ["YYR"], "latitude": 53.31685, "longitude": -60.33153, "location": {"lat": 53.31685, "lon": -60.33153}, "country_code": "CA", "admin1_code": "05", "admin2_code": "", "population": 7572, "timezone": "America/Goose_Bay"}
{"index": {"_index": "geonames_v2", "_id": "5972360"}}
{"name": "Hawkesbury", "asciiname": "Hawkesbury", "alternatenames": ["Khoksberi", "hawkysbyry", " awntaryw", "\u0425\u043e\u043a\u0441\u0431\u0435\u0440\u0438", "\u0647\u0627\u0648\u0643\u064a\u0633\u0628\u064a\u0631\u064a\u060c \u0623\u0648\u0646\u062a\u0627\u0631\u064a\u0648"], "latitude": 45.60009, "longitude": -74.61595, "location": {"lat": 45.60009, "lon": -74.61595}, "country_code": "CA", "admin1_code": "08", "admin2_code": "", "population": 12283, "timezone": "America/Toronto"}
{"index": {"_index": "geonames_v2", "_id": "5975038"}}
{"name": "High River", "asciiname": "High River", "alternatenames": [], "latitude": 50.58341, "longitude": -113.86867, "location": {"lat": 50.58341, "lon": -113.86867}, "country_code": "CA", "admin1_code": "01", "admin2_code": "", "population": 9826, "timezone": "America/Edmonton"}
{"index": {"_index": "geonames_v2", "_id": "5975503"}}
{"name": "Hinton", "asciiname": "Hinton", "alternatenames": ["Hinton", "Khinton", "YJP", "\u0425\u0438\u043d\u0442\u043e\u043d"], "latitude": 53.40009, "longitude": -117.58567, "location": {"lat": 53.40009, "lon": -117.58567}, "country_code": "CA", "admin1_code": "01", "admin2_code": "", "population": 9889, "timezone": "America/Edmonton"}
{"index": {"_index": "geonames_v2", "_id": "5978126"}}
{"name": "Hudson", "asciiname": "Hudson", "alternatenames": [], "latitude": 45.45008, "longitude": -74.14922, "location": {"lat": 45.45008, "lon": -74.14922}, "country_code": "CA", "admin1_code": "10", "admin2_code": "16", "population": 5088, "timezone": "America/Montreal"}
{"index": {"_index": "geonames_v2", "_id": "5978765"}}
{"name": "Huntsville", "asciiname": "Huntsville", "alternatenames": ["Khantsvil", "Khantsvill", "hantsfyl", " awntaryw", "hantsubiru", "heng ci wei er", "\u0425\u0430\u043d\u0442\u0441\u0432\u0438\u043b", "\u0425\u0430\u043d\u0442\u0441\u0432\u0438\u043b\u043b", "\u0647\u0627\u0646\u062a\u0633\u0641\u064a\u0644\u060c \u0623\u0648\u0646\u062a\u0627\u0631\u064a\u0648", "\u30cf\u30f3\u30c4\u30d3\u30eb", "\u4ea8\u8328\u7dad\u723e"], "latitude": 45.33341, "longitude": -79.21632, "location": {"lat": 45.33341, "lon": -79.21632}, "country_code": "CA", "admin1_code": "08", "admin2_code": "", "population": 19579, "timezone": "America/Toronto"}
{"index": {"_index": "geonames_v2", "_id": "5978831"}}
{"name": "Huron East", "asciiname": "Huron East", "alternatenames": [], "latitude": 43.61679, "longitude": -81.29975, "location": {"lat": 43.61679, "lon": -81.29975}, "country_code": "CA", "admin1_code": "08", "admin2_code": "", "population": 9264, "timezone": "America/Toronto"}
{"index": {"_index": "geonames_v2", "_id": "5983175"}}
{"name": "Ingersoll", "asciiname": "Ingersoll", "alternatenames": ["XIB"], "latitude": 43.03339, "longitude": -80.88302, "location": {"lat": 43.03339, "lon": -80.88302}, "country_code": "CA", "admin1_code": "08", "admin2_code": "", "population": 11874, "timezone": "America/Toronto"}
{"index": {"_index": "geonames_v2", "_id": "5983433"}}
{"name": "Innisfil", "asciiname": "Innisfil", "alternatenames": [], "latitude": 44.30011, "longitude": -79.64964, "location": {"lat": 44.30011, "lon": -79.64964}, "country_code": "CA", "admin1_code": "08", "admin2_code": "", "population": 7345, "timezone": "America/Toronto"}
{"index": {"_index": "geonames_v2", "_id": "5983720"}}
{"name": "Iqaluit", "asciiname": "Iqaluit", "alternatenames": ["Gorad Ikaluit", "Ikalouit", "Ikaluit", "Ikaluita", "Ikaluitas", "Ikaluito", "Iqaluit", "YFB", "aykalwyt", "ikallu-iteu", "ikaruito", "ikkaluyit", "ikvalyu'ita", "yi kui te", "\u0399\u03ba\u03ac\u03bb\u03bf\u03c5\u03b9\u03c4", "\u0406\u043a\u0430\u043b\u0443\u0457\u0442", "\u0413\u043e\u0440\u0430\u0434 \u0406\u043a\u0430\u043b\u0443\u0456\u0442", "\u0418\u043a\u0430\u043b\u0443\u0438\u0442", "\u05d0\u05d9\u05e7\u05d0\u05dc\u05d5\u05d0\u05d9\u05d8", "\u0625\u064a\u0643\u0627\u0644\u0648\u064a\u062a", "\u0627\u06a9\u0627\u0644\u0648\u0626\u0679", "\u0907\u0915\u094d\u0935\u093e\u0932\u094d\u092f\u0941\u0908\u0924", "\u0b87\u0b95\u0bcd\u0b95\u0bbe\u0bb2\u0bc1\u0baf\u0bbf\u0b9f\u0bcd", "\u10d8\u10d9\u10d0\u10da\u10e3\u10d8\u10e2\u10d8", "\u1403\u1583\u14d7\u1403\u1466", "\u30a4\u30ab\u30eb\u30a4\u30c8", "\u4f0a\u9b41\u7279", "\uc774\uce7c\ub8e8\uc774\ud2b8"], "latitude": 63.75059, "longitude": -68.51449, "location": {"lat": 63.75059, "lon": -68.51449}, "country_code": "CA", "admin1_code": "14", "admin2_code": "", "population": 6124, "timezone": "America/Iqaluit"}
{"index": {"_index": "geonames_v2", "_id": "5987650"}}
{"name": "Joliette", "asciiname": "Joliette", "alternatenames": ["XJL"], "latitude": 46.01677, "longitude": -73.44915, "location": {"lat": 46.01677, "lon": -73.44915}, "country_code": "CA", "admin1_code": "10", "admin2_code": "14", "population": 34772, "timezone": "America/Montreal"}
{"index": {"_index": "geonames_v2", "_id": "5989045"}}
{"name": "Kamloops", "asciiname": "Kamloops", "alternatenames": ["Kamloops", "Kamlups", "YKA", "kamlwbs", " kwlwmbya albrytanyt", "kamlwps", "kamurupusu", "kan lu pu si", "\u041a\u0430\u043c\u043b\u0443\u043f\u0441", "\u0643\u0627\u0645\u0644\u0648\u0628\u0633\u060c \u0643\u0648\u0644\u0648\u0645\u0628\u064a\u0627 \u0627\u0644\u0628\u0631\u064a\u0637\u0627\u0646\u064a\u0629", "\u06a9\u0627\u0645\u0644\u0648\u067e\u0633", "\u06a9\u0645\u0644\u0648\u067e\u0633\u060c \u0628\u0631\u0679\u0634 \u06a9\u0648\u0644\u0645\u0628\u06cc\u0627", "\u30ab\u30e0\u30eb\u30fc\u30d7\u30b9", "\u574e\u5362\u666e\u65af"], "latitude": 50.66648, "longitude": -120.3192, "location": {"lat": 50.66648, "lon": -120.3192}, "country_code": "CA", "admin1_code": "02", "admin2_code": "", "population": 68714, "timezone": "America/Vancouver"}
{"index": {"_index": "geonames_v2", "_id": "5989403"}}
{"name": "Kapuskasing", "asciiname": "Kapuskasing", "alternatenames": ["Kapuskejsing", "YYU", "kabwskaysynj", " awntaryw", "\u041a\u0430\u043f\u0443\u0441\u043a\u0435\u0439\u0441\u0456\u043d\u0433", "\u041a\u0430\u043f\u0443\u0441\u043a\u0435\u0458\u0441\u0438\u043d\u0433", "\u041a\u0430\u043f\u044a\u0441\u043a\u0435\u0439\u0441\u0438\u043d\u0433", "\u0643\u0627\u0628\u0648\u0633\u0643\u0627\u064a\u0633\u064a\u0646\u062c\u060c \u0623\u0648\u0646\u062a\u0627\u0631\u064a\u0648"], "latitude": 49.41694, "longitude": -82.43308, "location": {"lat": 49.41694, "lon": -82.43308}, "country_code": "CA", "admin1_code": "08", "admin2_code": "", "population": 9240, "timezone": "America/Toronto"}
{"index": {"_index": "geonames_v2", "_id": "5990579"}}
{"name": "Kelowna", "asciiname": "Kelowna", "alternatenames": ["Kelouna", "Kelowna", "YLW", "ji long na", "kellona", "kerouna", "kylwna", "kylwwna", "\u041a\u0435\u043b\u043e\u0443\u043d\u0430", "\u0643\u064a\u0644\u0648\u0646\u0627", "\u06a9\u06cc\u0644\u0648\u0646\u0627\u060c \u0628\u0631\u0679\u0634 \u06a9\u0648\u0644\u0645\u0628\u06cc\u0627", "\u06a9\u06cc\u0644\u0648\u0648\u0646\u0627", "\u30b1\u30ed\u30a6\u30ca", "\u57fa\u9686\u62ff", "\ucf08\ub85c\ub098"], "latitude": 49.88307, "longitude": -119.48568, "location": {"lat": 49.88307, "lon": -119.48568}, "country_code": "CA", "admin1_code": "02", "admin2_code": "", "population": 125109, "timezone": "America/Vancouver"}
{"index": {"_index": "geonames_v2", "_id": "5991148"}}
{"name": "Kentville", "asciiname": "Kentville", "alternatenames": [], "latitude": 45.08345, "longitude": -64.49876, "location": {"lat": 45.08345, "lon": -64.49876}, "country_code": "CA", "admin1_code": "07", "admin2_code": "", "population": 12636, "timezone": "America/Halifax"}
{"index": {"_index": "geonames_v2", "_id": "5991370"}}
{"name": "Keswick", "asciiname": "Keswick", "alternatenames": [], "latitude": 44.25011, "longitude": -79.46632, "location": {"lat": 44.25011, "lon": -79.46632}, "country_code": "CA", "admin1_code": "08", "admin2_code": "", "population": 21000, "timezone": "America/Toronto"}
{"index": {"_index": "geonames_v2", "_id": "5992059"}}
{"name": "Kimberley", "asciiname": "Kimberley", "alternatenames": ["Kimberley", "YQE"], "latitude": 49.67071, "longitude": -115.9776, "location": {"lat": 49.67071, "lon": -115.9776}, "country_code": "CA", "admin1_code": "02", "admin2_code": "5901", "population": 6513, "timezone": "America/Edmonton"}
{"index": {"_index": "geonames_v2", "_id": "5992500"}}
{"name": "Kingston", "asciiname": "Kingston", "alternatenames": ["Cataraqui", "Gorad Kingstan", "Kingston", "Kingstonas", "Kingstun", "YGK", "jin si dun", "jing shi dun", "kingseuteon", "kingusuton", "kynghstn", "\u0413\u043e\u0440\u0430\u0434 \u041a\u0456\u043d\u0433\u0441\u0442\u0430\u043d", "\u041a\u0438\u043d\u0433\u0441\u0442\u043e\u043d", "\u041a\u0438\u043d\u0433\u0441\u0442\u044a\u043d", "\u041a\u0456\u043d\u0433\u0441\u0442\u043e\u043d", "\u0643\u064a\u0646\u063a\u0633\u062a\u0646", "\u06a9\u0646\u06af\u0633\u0679\u0646", "\u30ad\u30f3\u30b0\u30b9\u30c8\u30f3", "\u4eac\u58eb\u9813", "\u91d1\u65af\u987f", "\ud0b9\uc2a4\ud134"], "latitude": 44.22976, "longitude": -76.48098, "location": {"lat": 44.22976, "lon": -76.48098}, "country_code": "CA", "admin1_code": "08", "admin2_code": "", "population": 114195, "timezone": "America/Toronto"}
{"index": {"_index": "geonames_v2", "_id": "5992830"}}
{"name": "Kirkland", "asciiname": "Kirkland", "alternatenames": [], "latitude": 45.45008, "longitude": -73.86586, "location": {"lat": 45.45008, "lon": -73.86586}, "country_code": "CA", "admin1_code": "10", "admin2_code": "", "population": 20491, "timezone": "America/Montreal"}
{"index": {"_index": "geonames_v2", "_id": "5992836"}}
{"name": "Kirkland Lake", "asciiname": "Kirkland Lake", "alternatenames": ["Kirkland Lejk", "YKX", "keokeullaendeuleikeu", "kyrkland lyk", " awntaryw", "\u041a\u0438\u0440\u043a\u043b\u0430\u043d\u0434 \u041b\u0435\u0458\u043a", "\u0643\u064a\u0631\u0643\u0644\u0627\u0646\u062f \u0644\u064a\u0643\u060c \u0623\u0648\u0646\u062a\u0627\u0631\u064a\u0648", "\ucee4\ud074\ub79c\ub4dc\ub808\uc774\ud06c"], "latitude": 48.14461, "longitude": -80.03767, "location": {"lat": 48.14461, "lon": -80.03767}, "country_code": "CA", "admin1_code": "08", "admin2_code": "", "population": 7775, "timezone": "America/Toronto"}
{"index": {"_index": "geonames_v2", "_id": "5992996"}}
{"name": "Kitchener", "asciiname": "Kitchener", "alternatenames": ["Gorad Kitchehner", "Kiceneris", "Kicenero", "Kichener", "Kitchener", "Ki\u0109enero", "Ki\u010deneris", "ji qin na", "kchnr", "khitche nex r", "kichineo", "kitchina", "kychnr", "kytshnr", " awntaryw", "qyz'nr", "\u0413\u043e\u0440\u0430\u0434 \u041a\u0456\u0442\u0447\u044d\u043d\u0435\u0440", "\u041a\u0438\u0442\u0447\u0435\u043d\u0435\u0440", "\u041a\u0438\u0447\u0435\u043d\u0435\u0440", "\u041a\u0456\u0447\u0435\u043d\u0435\u0440", "\u05e7\u05d9\u05e6'\u05e0\u05e8", "\u0643\u064a\u062a\u0634\u0646\u0631\u060c \u0623\u0648\u0646\u062a\u0627\u0631\u064a\u0648", "\u06a9\u0686\u0646\u0631", "\u06a9\u06cc\u0686\u0646\u0631", "\u0e04\u0e34\u0e15\u0e40\u0e0a\u0e40\u0e19\u0e2d\u0e23\u0e4c", "\u10d9\u10d8\u10e2\u10e9\u10d4\u10dc\u10d4\u10e0\u10d8", "\u30ad\u30c3\u30c1\u30ca\u30fc", "\u57fa\u79e6\u62ff", "\ud0a4\uce58\ub108"], "latitude": 43.42537, "longitude": -80.5112, "location": {"lat": 43.42537, "lon": -80.5112}, "country_code": "CA", "admin1_code": "08", "admin2_code": "", "population": 409112, "timezone": "America/Toronto"}
{"index": {"_index": "geonames_v2", "_id": "5993072"}}
{"name": "Kitimat", "asciiname": "Kitimat", "alternatenames": ["kytymat", " kwlwmbya albrytanyt", "\u0643\u064a\u062a\u064a\u0645\u0627\u062a\u060c \u0643\u0648\u0644\u0648\u0645\u0628\u064a\u0627 \u0627\u0644\u0628\u0631\u064a\u0637\u0627\u0646\u064a\u0629"], "latitude": 54.05244, "longitude": -128.65342, "location": {"lat": 54.05244, "lon": -128.65342}, "country_code": "CA", "admin1_code": "02", "admin2_code": "", "population": 8987, "timezone": "America/Vancouver"}
{"index": {"_index": "geonames_v2", "_id": "5994839"}}
{"name": "Labrador City", "asciiname": "Labrador City", "alternatenames": [], "latitude": 52.94626, "longitude": -66.91137, "location": {"lat": 52.94626, "lon": -66.91137}, "country_code": "CA", "admin1_code": "05", "admin2_code": "", "population": 10313, "timezone": "America/Goose_Bay"}
{"index": {"_index": "geonames_v2", "_id": "6002133"}}
{"name": "Lac-Brome", "asciiname": "Lac-Brome", "alternatenames": ["Lac Brome"], "latitude": 45.21678, "longitude": -72.51581, "location": {"lat": 45.21678, "lon": -72.51581}, "country_code": "CA", "admin1_code": "10", "admin2_code": "16", "population": 5629, "timezone": "America/Montreal"}
{"index": {"_index": "geonames_v2", "_id": "6024829"}}
{"name": "Lachute", "asciiname": "Lachute", "alternatenames": [], "latitude": 45.65008, "longitude": -74.33253, "location": {"lat": 45.65008, "lon": -74.33253}, "country_code": "CA", "admin1_code": "10", "admin2_code": "15", "population": 9562, "timezone": "America/Montreal"}
{"index": {"_index": "geonames_v2", "_id": "6035615"}}
{"name": "Lacombe", "asciiname": "Lacombe", "alternatenames": ["Lakom", "la ke mu", "lakwmb", "lkwmb", "\u041b\u0430\u043a\u043e\u043c", "\u0644\u0627\u0643\u0648\u0645\u0628", "\u0644\u06a9\u0648\u0645\u0628", "\u62c9\u79d1\u59c6"], "latitude": 52.46681, "longitude": -113.7353, "location": {"lat": 52.46681, "lon": -113.7353}, "country_code": "CA", "admin1_code": "01", "admin2_code": "", "population": 10059, "timezone": "America/Edmonton"}
{"index": {"_index": "geonames_v2", "_id": "6047817"}}
{"name": "Ladysmith", "asciiname": "Ladysmith", "alternatenames": [], "latitude": 48.98292, "longitude": -123.81938, "location": {"lat": 48.98292, "lon": -123.81938}, "country_code": "CA", "admin1_code": "02", "admin2_code": "", "population": 8740, "timezone": "America/Vancouver"}
{"index": {"_index": "geonames_v2", "_id": "6049024"}}
{"name": "Lambton Shores", "asciiname": "Lambton Shores", "alternatenames": [], "latitude": 43.16678, "longitude": -81.93309, "location": {"lat": 43.16678, "lon": -81.93309}, "country_code": "CA", "admin1_code": "08", "admin2_code": "", "population": 10656, "timezone": "America/Toronto"}
{"index": {"_index": "geonames_v2", "_id": "6049388"}}
{"name": "Langford", "asciiname": "Langford", "alternatenames": ["XEJ"], "latitude": 48.44963, "longitude": -123.50261, "location": {"lat": 48.44963, "lon": -123.50261}, "country_code": "CA", "admin1_code": "02", "admin2_code": "", "population": 22459, "timezone": "America/Vancouver"}
{"index": {"_index": "geonames_v2", "_id": "6049429"}}
{"name": "Langley", "asciiname": "Langley", "alternatenames": ["Langley", "YLY"], "latitude": 49.10107, "longitude": -122.65883, "location": {"lat": 49.10107, "lon": -122.65883}, "country_code": "CA", "admin1_code": "02", "admin2_code": "", "population": 23606, "timezone": "America/Vancouver"}
{"index": {"_index": "geonames_v2", "_id": "6049430"}}
{"name": "Langley", "asciiname": "Langley", "alternatenames": ["Township of Langley"], "latitude": 49.08297, "longitude": -122.58589, "location": {"lat": 49.08297, "lon": -122.58589}, "country_code": "CA", "admin1_code": "02", "admin2_code": "", "population": 93726, "timezone": "America/Vancouver"}
{"index": {"_index": "geonames_v2", "_id": "6049863"}}
{"name": "La Prairie", "asciiname": "La Prairie", "alternatenames": [], "latitude": 45.41678, "longitude": -73.49917, "location": {"lat": 45.41678, "lon": -73.49917}, "country_code": "CA", "admin1_code": "10", "admin2_code": "16", "population": 21763, "timezone": "America/Montreal"}
{"index": {"_index": "geonames_v2", "_id": "6050194"}}
{"name": "La Sarre", "asciiname": "La Sarre", "alternatenames": ["SSQ"], "latitude": 48.80019, "longitude": -79.19964, "location": {"lat": 48.80019, "lon": -79.19964}, "country_code": "CA", "admin1_code": "10", "admin2_code": "08", "population": 7206, "timezone": "America/Montreal"}
{"index": {"_index": "geonames_v2", "_id": "6050263"}}
{"name": "L'Assomption", "asciiname": "L'Assomption", "alternatenames": [], "latitude": 45.82318, "longitude": -73.4294, "location": {"lat": 45.82318, "lon": -73.4294}, "country_code": "CA", "admin1_code": "10", "admin2_code": "14", "population": 16738, "timezone": "America/Montreal"}
{"index": {"_index": "geonames_v2", "_id": "6050416"}}
{"name": "La Tuque", "asciiname": "La Tuque", "alternatenames": ["La Tik", "La-Tjuk", "YLQ", "latak", " kybk", "latwk", "\u041b\u0430 \u0422\u0438\u043a", "\u041b\u0430-\u0422\u044e\u043a", "\u0644\u0627\u062a\u0627\u0643\u060c \u0643\u064a\u0628\u0643", "\u0644\u0627\u062a\u0648\u06a9"], "latitude": 47.43337, "longitude": -72.7824, "location": {"lat": 47.43337, "lon": -72.7824}, "country_code": "CA", "admin1_code": "10", "admin2_code": "04", "population": 9503, "timezone": "America/Montreal"}
{"index": {"_index": "geonames_v2", "_id": "6050610"}}
{"name": "Laval", "asciiname": "Laval", "alternatenames": ["Laval", "Laval'", "Lavalis", "Lavalo", "la wa lei", "lafal", "lawal", " kbk", "lawl", "ravu~aru", "\u039b\u03b1\u03b2\u03ac\u03bb", "\u041b\u0430\u0432\u0430\u043b", "\u041b\u0430\u0432\u0430\u043b\u044c", "\u05dc\u05d0\u05d5\u05d5\u05d0\u05dc", "\u0644\u0627\u0641\u0627\u0644", "\u0644\u0627\u0648\u0627\u0644\u060c \u06a9\u0628\u06a9", "\u0644\u0627\u0648\u0644", "\u30e9\u30f4\u30a1\u30eb", "\u62c9\u74e6\u52d2"], "latitude": 45.56995, "longitude": -73.692, "location": {"lat": 45.56995, "lon": -73.692}, "country_code": "CA", "admin1_code": "10", "admin2_code": "13", "population": 376845, "timezone": "America/Montreal"}
{"index": {"_index": "geonames_v2", "_id": "6050650"}}
{"name": "Lavaltrie", "asciiname": "Lavaltrie", "alternatenames": [], "latitude": 45.88338, "longitude": -73.28245, "location": {"lat": 45.88338, "lon": -73.28245}, "country_code": "CA", "admin1_code": "10", "admin2_code": "14", "population": 8762, "timezone": "America/Montreal"}
{"index": {"_index": "geonames_v2", "_id": "6051562"}}
{"name": "Leduc", "asciiname": "Leduc", "alternatenames": ["Leduk", "lideog", "lwdwk", "lydwk", "\u041b\u0435\u0434\u0443\u043a", "\u0644\u0648\u062f\u0648\u06a9", "\u0644\u064a\u062f\u0648\u0643", "\ub9ac\ub355"], "latitude": 53.26682, "longitude": -113.55201, "location": {"lat": 53.26682, "lon": -113.55201}, "country_code": "CA", "admin1_code": "01", "admin2_code": "", "population": 15561, "timezone": "America/Edmonton"}
{"index": {"_index": "geonames_v2", "_id": "6052788"}}
{"name": "Les Coteaux", "asciiname": "Les Coteaux", "alternatenames": [], "latitude": 45.28338, "longitude": -74.23254, "location": {"lat": 45.28338, "lon": -74.23254}, "country_code": "CA", "admin1_code": "10", "admin2_code": "16", "population": 10622, "timezone": "America/Montreal"}
{"index": {"_index": "geonames_v2", "_id": "6053154"}}
{"name": "Lethbridge", "asciiname": "Lethbridge", "alternatenames": ["Letbric", "Letbridz", "Letbridzas", "Letbridzh", "Letbrid\u017eas", "Lethbridge", "YQL", "lai si bu li qi", "leseubeuliji", "lythbrydj", "resuburijji", "\u041b\u0435\u0442\u0431\u0440\u0438\u0434\u0436", "\u041b\u0435\u0442\u0431\u0440\u0438\u045f", "\u0644\u062b\u200c\u0628\u0631\u06cc\u062c", "\u0644\u064a\u062b\u0628\u0631\u064a\u062f\u062c", "\u0644\u06cc\u062a\u06be \u0628\u0631\u062c", "\u0644\u06cc\u062a\u06be\u0628\u0631\u06cc\u062c", "\u30ec\u30b9\u30d6\u30ea\u30c3\u30b8", "\u840a\u65af\u5e03\u91cc\u5947", "\ub808\uc2a4\ube0c\ub9ac\uc9c0"], "latitude": 49.69999, "longitude": -112.81856, "location": {"lat": 49.69999, "lon": -112.81856}, "country_code": "CA", "admin1_code": "01", "admin2_code": "", "population": 70617, "timezone": "America/Edmonton"}
{"index": {"_index": "geonames_v2", "_id": "6053877"}}
{"name": "L'\u00cele-Perrot", "asciiname": "L'Ile-Perrot", "alternatenames": ["L'Ile Perrot"], "latitude": 45.38338, "longitude": -73.9492, "location": {"lat": 45.38338, "lon": -73.9492}, "country_code": "CA", "admin1_code": "10", "admin2_code": "16", "population": 9927, "timezone": "America/Montreal"}
{"index": {"_index": "geonames_v2", "_id": "6058024"}}
{"name": "Lloydminster", "asciiname": "Lloydminster", "alternatenames": ["Llojdminister", "Llojdminster", "Lojdminster", "YLL", "lwydmnstr", "lwydmynstr", "\u041b\u043b\u043e\u0439\u0434\u043c\u0438\u043d\u0441\u0442\u0435\u0440", "\u041b\u043b\u043e\u0439\u0434\u043c\u0456\u043d\u0456\u0441\u0442\u0435\u0440", "\u041b\u043e\u0458\u0434\u043c\u0438\u043d\u0441\u0442\u0435\u0440", "\u0644\u0627\u0626\u0688 \u0645\u0646\u0633\u0679\u0631", "\u0644\u0648\u064a\u062f\u0645\u0646\u0633\u062a\u0631", "\u0644\u0648\u06cc\u062f\u0645\u06cc\u0646\u0633\u062a\u0631"], "latitude": 53.28346, "longitude": -110.00157, "location": {"lat": 53.28346, "lon": -110.00157}, "country_code": "CA", "admin1_code": "11", "admin2_code": "", "population": 15910, "timezone": "America/Edmonton"}
{"index": {"_index": "geonames_v2", "_id": "6058560"}}
{"name": "London", "asciiname": "London", "alternatenames": ["London", "Londonas", "Londono", "YXU", "leondeon", "lndn", "lndn", " antaryw", "londoni", "lun dui", "lun dun", "lwndwn", "rondon", "\u041b\u043e\u043d\u0434\u043e\u043d", "\u05dc\u05d5\u05e0\u05d3\u05d5\u05df", "\u0644\u0646\u062f\u0646", "\u0644\u0646\u062f\u0646\u060c \u0627\u0646\u062a\u0627\u0631\u06cc\u0648", "\u0644\u0646\u062f\u0646\u060c \u0627\u0648\u0646\u0679\u0627\u0631\u06cc\u0648", "\u10da\u10dd\u10dc\u10d3\u10dd\u10dc\u10d8", "\u30ed\u30f3\u30c9\u30f3", "\u4f26\u6566", "\ub7f0\ub358"], "latitude": 42.98339, "longitude": -81.23304, "location": {"lat": 42.98339, "lon": -81.23304}, "country_code": "CA", "admin1_code": "08", "admin2_code": "", "population": 346765, "timezone": "America/Toronto"}
{"index": {"_index": "geonames_v2", "_id": "6059891"}}
{"name": "Longueuil", "asciiname": "Longueuil", "alternatenames": ["Long'oj", "Longej", "Longejlo", "Longjoj", "Longueuil", "lang ji er", "lwnghwy", "lwngwl", "rongeru", "\u041b\u043e\u043d\u0433\u0435\u0458", "\u041b\u043e\u043d\u0433\u044c\u043e\u0439", "\u041b\u043e\u043d\u0433\u0451\u0439", "\u0644\u0648\u0646\u063a\u0648\u064a", "\u0644\u0648\u0646\u06af\u0624\u0644", "\u30ed\u30f3\u30b2\u30fc\u30eb", "\u6717\u57fa\u723e"], "latitude": 45.53121, "longitude": -73.51806, "location": {"lat": 45.53121, "lon": -73.51806}, "country_code": "CA", "admin1_code": "10", "admin2_code": "16", "population": 229330, "timezone": "America/Montreal"}
{"index": {"_index": "geonames_v2", "_id": "6060407"}}
{"name": "Lorraine", "asciiname": "Lorraine", "alternatenames": [], "latitude": 45.68338, "longitude": -73.78249, "location": {"lat": 45.68338, "lon": -73.78249}, "country_code": "CA", "admin1_code": "10", "admin2_code": "14", "population": 9613, "timezone": "America/Montreal"}
{"index": {"_index": "geonames_v2", "_id": "6060839"}}
{"name": "Louiseville", "asciiname": "Louiseville", "alternatenames": [], "latitude": 46.25594, "longitude": -72.94145, "location": {"lat": 46.25594, "lon": -72.94145}, "country_code": "CA", "admin1_code": "10", "admin2_code": "04", "population": 5819, "timezone": "America/Montreal"}
{"index": {"_index": "geonames_v2", "_id": "6064180"}}
{"name": "Magog", "asciiname": "Magog", "alternatenames": [], "latitude": 45.26678, "longitude": -72.14909, "location": {"lat": 45.26678, "lon": -72.14909}, "country_code": "CA", "admin1_code": "10", "admin2_code": "05", "population": 15550, "timezone": "America/Montreal"}
{"index": {"_index": "geonames_v2", "_id": "6065686"}}
{"name": "Maple Ridge", "asciiname": "Maple Ridge", "alternatenames": ["Mehpl-Ridzh", "feng shu ling", "mabl rydj", " kwlwmbya albrytanyt", "meipeulliji", "meipururijji", "\u041c\u044d\u043f\u043b-\u0420\u0438\u0434\u0436", "\u0645\u0627\u0628\u0644 \u0631\u064a\u062f\u062c\u060c \u0643\u0648\u0644\u0648\u0645\u0628\u064a\u0627 \u0627\u0644\u0628\u0631\u064a\u0637\u0627\u0646\u064a\u0629", "\u30e1\u30a4\u30d7\u30eb\u30ea\u30c3\u30b8", "\u6953\u6a39\u5dba", "\uba54\uc774\ud50c\ub9ac\uc9c0"], "latitude": 49.21939, "longitude": -122.60193, "location": {"lat": 49.21939, "lon": -122.60193}, "country_code": "CA", "admin1_code": "02", "admin2_code": "", "population": 70000, "timezone": "America/Vancouver"}
{"index": {"_index": "geonames_v2", "_id": "6066350"}}
{"name": "Marieville", "asciiname": "Marieville", "alternatenames": [], "latitude": 45.43338, "longitude": -73.16585, "location": {"lat": 45.43338, "lon": -73.16585}, "country_code": "CA", "admin1_code": "10", "admin2_code": "16", "population": 5600, "timezone": "America/Montreal"}
{"index": {"_index": "geonames_v2", "_id": "6066513"}}
{"name": "Markham", "asciiname": "Markham", "alternatenames": ["Markam", "Markem", "Markhamo", "Markum", "makamu", "markam", "wan jin shi", "\u041c\u0430\u0440\u043a\u0430\u043c", "\u041c\u0430\u0440\u043a\u0435\u043c", "\u041c\u0430\u0440\u043a\u044a\u043c", "\u0645\u0627\u0631\u0643\u0627\u0645", "\u0645\u0627\u0631\u06a9\u06be\u0645\u060c \u0627\u0646\u0679\u0627\u0631\u06cc\u0648", "\u30de\u30fc\u30ab\u30e0", "\u842c\u9326\u5e02"], "latitude": 43.86682, "longitude": -79.2663, "location": {"lat": 43.86682, "lon": -79.2663}, "country_code": "CA", "admin1_code": "08", "admin2_code": "", "population": 261573, "timezone": "America/Toronto"}
{"index": {"_index": "geonames_v2", "_id": "6067494"}}
{"name": "Mascouche", "asciiname": "Mascouche", "alternatenames": [], "latitude": 45.74965, "longitude": -73.59956, "location": {"lat": 45.74965, "lon": -73.59956}, "country_code": "CA", "admin1_code": "10", "admin2_code": "14", "population": 34626, "timezone": "America/Montreal"}
{"index": {"_index": "geonames_v2", "_id": "6071618"}}
{"name": "Medicine Hat", "asciiname": "Medicine Hat", "alternatenames": ["Medicine Hat", "Medikan Hat", "Medisin Hetas", "Medisin Khat", "Medisin-Get", "Medisin-Khat", "YXH", "mdsyn hat", "mdysyn ht", "mei di xin ha te", "\u041c\u0435\u0434\u0438\u0441\u0438\u043d \u0425\u0430\u0442", "\u041c\u0435\u0434\u0438\u0441\u0438\u043d-\u0413\u0435\u0442", "\u041c\u0435\u0434\u0438\u0441\u0438\u043d-\u0425\u0430\u0442", "\u0645\u062f\u0633\u064a\u0646 \u0647\u0627\u062a", "\u0645\u062f\u06cc\u0633\u06cc\u0646 \u0647\u062a", "\u0645\u06cc\u0688\u06cc\u0633\u0646 \u06c1\u06cc\u0679", "\u6885\u8fea\u8f9b\u54c8\u7279"], "latitude": 50.05006, "longitude": -110.66834, "location": {"lat": 50.05006, "lon": -110.66834}, "country_code": "CA", "admin1_code": "01", "admin2_code": "", "population": 63138, "timezone": "America/Edmonton"}
{"index": {"_index": "geonames_v2", "_id": "6071876"}}
{"name": "Melfort", "asciiname": "Melfort", "alternatenames": ["Melfort", "\u041c\u0435\u043b\u0444\u043e\u0440\u0442"], "latitude": 52.86673, "longitude": -104.61768, "location": {"lat": 52.86673, "lon": -104.61768}, "country_code": "CA", "admin1_code": "11", "admin2_code": "", "population": 5410, "timezone": "America/Regina"}
{"index": {"_index": "geonames_v2", "_id": "6072206"}}
{"name": "Mercier", "asciiname": "Mercier", "alternatenames": [], "latitude": 45.31678, "longitude": -73.74919, "location": {"lat": 45.31678, "lon": -73.74919}, "country_code": "CA", "admin1_code": "10", "admin2_code": "16", "population": 10121, "timezone": "America/Montreal"}
{"index": {"_index": "geonames_v2", "_id": "6072350"}}
{"name": "Merritt", "asciiname": "Merritt", "alternatenames": ["YMB"], "latitude": 50.11225, "longitude": -120.7942, "location": {"lat": 50.11225, "lon": -120.7942}, "country_code": "CA", "admin1_code": "02", "admin2_code": "", "population": 7179, "timezone": "America/Vancouver"}
{"index": {"_index": "geonames_v2", "_id": "6073363"}}
{"name": "Midland", "asciiname": "Midland", "alternatenames": ["Midland", "mei de lan", "mydland", " awntaryw", "\u041c\u0438\u0434\u043b\u0430\u043d\u0434", "\u041c\u0456\u0434\u043b\u0430\u043d\u0434", "\u0645\u064a\u062f\u0644\u0627\u0646\u062f\u060c \u0623\u0648\u0646\u062a\u0627\u0631\u064a\u0648", "\u7f8e\u5fb7\u5170"], "latitude": 44.7501, "longitude": -79.88296, "location": {"lat": 44.7501, "lon": -79.88296}, "country_code": "CA", "admin1_code": "08", "admin2_code": "", "population": 31502, "timezone": "America/Toronto"}
{"index": {"_index": "geonames_v2", "_id": "6074377"}}
{"name": "Milton", "asciiname": "Milton", "alternatenames": [], "latitude": 43.51681, "longitude": -79.88294, "location": {"lat": 43.51681, "lon": -79.88294}, "country_code": "CA", "admin1_code": "08", "admin2_code": "5969719", "population": 84362, "timezone": "America/Toronto"}
{"index": {"_index": "geonames_v2", "_id": "6075061"}}
{"name": "Mirabel", "asciiname": "Mirabel", "alternatenames": [], "latitude": 45.65008, "longitude": -74.08251, "location": {"lat": 45.65008, "lon": -74.08251}, "country_code": "CA", "admin1_code": "10", "admin2_code": "15", "population": 34626, "timezone": "America/Montreal"}
{"index": {"_index": "geonames_v2", "_id": "6075081"}}
{"name": "Miramichi", "asciiname": "Miramichi", "alternatenames": ["Miramichi", "Miramishi", "YCH", "\u041c\u0438\u0440\u0430\u043c\u0438\u0448\u0438", "\u041c\u0456\u0440\u0430\u043c\u0456\u0447\u0456", "\u0645\u06cc\u0631\u0627\u0645\u0686\u06be\u06cc"], "latitude": 47.02895, "longitude": -65.50186, "location": {"lat": 47.02895, "lon": -65.50186}, "country_code": "CA", "admin1_code": "04", "admin2_code": "1309", "population": 18129, "timezone": "America/Moncton"}
{"index": {"_index": "geonames_v2", "_id": "6075357"}}
{"name": "Mississauga", "asciiname": "Mississauga", "alternatenames": ["Misisaga", "Misisoga", "Misisogo", "Missisoga", "Mississauga", "Mississoga", "mi xi sha jia", "mishisaga", "misisaga", "misisogeo", "mss saga", "mssaga", "mysysagha", "mysyswgh", "mysyswja", "\u041c\u0438\u0441\u0438\u0441\u0430\u0433\u0430", "\u041c\u0438\u0441\u0438\u0441\u043e\u0433\u0430", "\u041c\u0438\u0441\u0441\u0438\u0441\u0441\u043e\u0433\u0430", "\u041c\u0456\u0441\u0441\u0456\u0441\u043e\u0433\u0430", "\u05de\u05d9\u05e1\u05d9\u05e1\u05d5\u05d2\u05d4", "\u0645\u0633\u0633 \u0633\u0627\u06af\u0627", "\u0645\u0633\u0633\u0627\u06af\u0627", "\u0645\u064a\u0633\u064a\u0633\u0627\u063a\u0627", "\u0645\u064a\u0633\u064a\u0633\u0648\u062c\u0627", "\u092e\u093f\u0938\u093f\u0938\u093e\u0917\u093e", "\u0a2e\u0a3f\u0a71\u0a38\u0a3f\u0a71\u0a38\u0a3e\u0a17\u0a3e", "\u0db8\u0dd2\u0dc3\u0dd2\u0dc3\u0dcf\u0d9c\u0dcf", "\u30df\u30b7\u30b5\u30ac", "\u5bc6\u897f\u6c99\u52a0", "\ubbf8\uc2dc\uc18c\uac70"], "latitude": 43.5789, "longitude": -79.6583, "location": {"lat": 43.5789, "lon": -79.6583}, "country_code": "CA", "admin1_code": "08", "admin2_code": "", "population": 668549, "timezone": "America/Toronto"}
{"index": {"_index": "geonames_v2", "_id": "6076211"}}
{"name": "Moncton", "asciiname": "Moncton", "alternatenames": ["Mon'kton", "Moncton", "Monkton", "Monktonas", "Monktono", "YQM", "meng ke dun", "monkuton", "mwnktwn", "mx ngk tan", "\u039c\u03cc\u03bd\u03ba\u03c4\u03bf\u03bd", "\u041c\u043e\u043d\u043a\u0442\u043e\u043d", "\u0645\u0648\u0646\u0643\u062a\u0648\u0646", "\u0645\u0648\u0646\u06a9\u062a\u0648\u0646", "\u0645\u0648\u0646\u06a9\u0679\u0648\u0646", "\u0e21\u0e2d\u0e07\u0e01\u0e4c\u0e15\u0e31\u0e19", "\u30e2\u30f3\u30af\u30c8\u30f3", "\u8499\u514b\u987f"], "latitude": 46.11594, "longitude": -64.80186, "location": {"lat": 46.11594, "lon": -64.80186}, "country_code": "CA", "admin1_code": "04", "admin2_code": "", "population": 87467, "timezone": "America/Moncton"}
{"index": {"_index": "geonames_v2", "_id": "6077128"}}
{"name": "Mont-Laurier", "asciiname": "Mont-Laurier", "alternatenames": [], "latitude": 46.55011, "longitude": -75.4993, "location": {"lat": 46.55011, "lon": -75.4993},